Unidade de Saúde,GVE,Cidade,Endereço,tipos_de_soro,Telefone,endereco_completo,latitude,longitude
HOSPITAL VITAL BRAZIL DO INSTITUTO BUTANTAN,GVE 1 CAPITAL,SAO PAULO,AV. VITAL BRASIL Nº 1500 - INSTITUTO BUTANTAN,"BOTRÓPICO, CROTÁLICO, ELAPÍDICO, LAQUÉTICO, ESCORPIÔNICO, ARACNÍDICO E LONÔMICO", (11) 2627-9529,"AV. VITAL BRASIL Nº 1500 - INSTITUTO BUTANTAN, SAO PAULO, SP, Brasil",-23.568369,-46.7173042
HOSPITAL CAMPO LIMPO - PS HOSPITAL MUNICIPAL FERNANDO MAURO PIRES DA ROCHA,GVE 1 CAPITAL,SAO PAULO,"RUA TERESA MOUCO DE OLIVEIRA, 121 - JARDIM SÃO LUIZ",ESCORPIÔNICO,(11) 3394-7556 E 3394-7492,"RUA TERESA MOUCO DE OLIVEIRA, 121 - JARDIM SÃO LUIZ, SAO PAULO, SP, Brasil",-23.6487447,-46.7499567
HOSPITAL ESTADUAL PROF. LIBERATO JOHN ALPHONSE DI DIO (HOSPITAL GERAL DO GRAJAÚ),GVE 1 CAPITAL,SAO PAULO,"R. FRANCISCO OCTAVIO PACCA, 180, PARQUE DAS NAÇÕES",ESCORPIÔNICO,(11) 3544-9444 RAMAL 415/218 / 11-947118758,"R. FRANCISCO OCTAVIO PACCA, 180, PARQUE DAS NAÇÕES, SAO PAULO, SP, Brasil",-23.7288873,-46.6909838
PRONTO SOCORRO MUNICIPAL - EMBU DAS ARTES,GVE 10 OSASCO,EMBU DAS ARTES,"AV. ELIAS YASBECK, Nº 1415, CENTRO","BOTRÓPICO, CROTÁLICO E ESCORPIÔNICO",(11) 4785-0151,"AV. ELIAS YASBECK, Nº 1415, CENTRO, EMBU DAS ARTES, SP, Brasil",-23.6491133,-46.8474418
UNIDADE MISTA DE SAÚDE,GVE 10 OSASCO,EMBU-GUACU,"RUA CELESTINO APA, Nº 50","BOTRÓPICO, CROTÁLICO E ARACNÍDICO.",(11) 4661-1884,"RUA CELESTINO APA, Nº 50, EMBU-GUACU, SP, Brasil",-23.8379721,-46.8111642
PRONTO SOCORRO CENTRAL,GVE 10 OSASCO,ITAPECERICA DA SERRA,"R. CARLOS EDUARDO D. TAUTICO, Nº 77","BOTRÓPICO, CROTÁLICO, ARACNÍDICO E ESCORPIÔNICO",(11) 4668-6803,"R. CARLOS EDUARDO D. TAUTICO, Nº 77, ITAPECERICA DA SERRA, SP, Brasil",-23.7183369,-46.8481043
HOSPITAL GERAL DE ITAPEVI,GVE 10 OSASCO,ITAPEVI,"RUA JESUINO JOAQUIM DA SILVA, S/N – JD. NOVA ITAPEVI",ESCORPIÔNICO,(11) 4143-8600,"RUA JESUINO JOAQUIM DA SILVA, S/N – JD. NOVA ITAPEVI, ITAPEVI, SP, Brasil",-23.5265216,-46.93923179999999
SANTA CASA DE AURIFLAMA,GVE 11 ARACATUBA,AURIFLAMA,"RUA ALFREDO DAINESI, 59-52","BOTRÓPICO, CROTÁLICO, ARACNÍDICO E ESCORPIÔNICO",(17) 842-1282,"RUA ALFREDO DAINESI, 59-52, AURIFLAMA, SP, Brasil",-20.6873375,-50.5537487
PRONTO SOCORRO MUNICIPAL,GVE 11 ARACATUBA,BIRIGUI,"RUA LUIZ OBA, 249","BOTRÓPICO, CROTÁLICO, ARACNÍDICO E ESCORPIÔNICO",(18) 3638-8580,"RUA LUIZ OBA, 249, BIRIGUI, SP, Brasil",-21.2811954,-50.33541169999999
ASSOCIAÇÃO HOSPITALAR DE CLEMENTINA (24 HS),GVE 11 ARACATUBA,CLEMENTINA,"RUA FRANCISCO VASQUEZ, Nº 01 - CENTRO","BOTRÓPICO, CROTÁLICO, ARACNÍDICO E ESCORPIÔNICO",(18) 3658-1172,"RUA FRANCISCO VASQUEZ, Nº 01 - CENTRO, CLEMENTINA, SP, Brasil",-21.5573459,-50.447353
HOSPITAL MATERNIDADE DE GUARÇAÍ,GVE 11 ARACATUBA,GUARÇAÍ,"RUA BENEDITO BEM-HUR LOUZADA, 1210","BOTRÓPICO, CROTÁLICO, ARACNÍDICO E ESCORPIÔNICO",(18) 3705-1279,"RUA BENEDITO BEM-HUR LOUZADA, 1210, GUARÇAÍ, SP, Brasil",-21.0340218,-51.2061552
CENTRO DE SAÚDE II - STO. ANT. DO ARACANGUÁ,GVE 11 ARACATUBA,SANTO ANTONIO DO ARACANGUA,"AVENIDA DOS EUGENIOS, 451, JD. TRIANGULO",ESCORPIÔNICO,(18) 3639-9595,"AVENIDA DOS EUGENIOS, 451, JD. TRIANGULO, SANTO ANTONIO DO ARACANGUA, SP, Brasil",-20.9314277,-50.4967524
HOSPITAL DONA BALBINA,GVE 12 ARARAQUARA,PORTO FERREIRA,"R. DR. CARLINDO VALERIANI, 337","BOTRÓPICO, CROTÁLICO, ARACNÍDICO E ESCORPIÔNICO",(19) 3589-5500,"R. DR. CARLINDO VALERIANI, 337, PORTO FERREIRA, SP, Brasil",-21.8543404,-47.4815298
SANTA CASA DE OURINHOS,GVE 13 ASSIS,OURINHOS,"RUA D. PEDRO I, Nº 716, VILA MORAES","BOTRÓPICO, CROTÁLICO, ARACNÍDICO E ESCORPIÔNICO",(14) 3322-1133,"RUA D. PEDRO I, Nº 716, VILA MORAES, OURINHOS, SP, Brasil",-22.9838573,-49.8638287
SANTA CASA DE PARAGUAÇU PAULISTA,GVE 13 ASSIS,PARAGUACU PAULISTA,"RUA CARAMURU Nº 568, CENTRO","BOTRÓPICO, CROTÁLICO, ARACNÍDICO E ESCORPIÔNICO",(18) 3361-1133,"RUA CARAMURU Nº 568, CENTRO, PARAGUACU PAULISTA, SP, Brasil",-22.4143032,-50.5793816
SANTA CASA DE SANTA CRUZ DO RIO PARDO,GVE 13 ASSIS,SANTA CRUZ DO RIO PARDO,"AV. DR. CIRO DE MELLO CAMARINHA 530, CENTRO","BOTRÓPICO, CROTÁLICO, ARACNÍDICO E ESCORPIÔNICO",(14) 3322-1222,"AV. DR. CIRO DE MELLO CAMARINHA 530, CENTRO, SANTA CRUZ DO RIO PARDO, SP, Brasil",-22.9015039,-49.6268336
UPA DR. MANOEL JOAQUIM DOS REIS,GVE 14 BARRETOS,BEBEDOURO,"RUA LUIS BRUNELLI, 00 - JARDIM JÚLIA","BOTRÓPICO, CROTÁLICO, ESCORPIÔNICO, ARACNÍDICO E LONÔMICO.",(17) 3344-8100,"RUA LUIS BRUNELLI, 00 - JARDIM JÚLIA, BEBEDOURO, SP, Brasil",-20.9344846,-48.4980017
UNIDADE DE PRONTO ATENDIMENTO 24 H WILSON ZANGIROLAMI,GVE 14 BARRETOS,OLIMPIA,"AV. VALDEMAR LOPES FERRAZ, 288 - CENTRO","BOTRÓPICO, CROTÁLICO, ESCORPIÔNICO, ARACNÍDICO E LONÔMICO.",(17) 3281-6044 / 3280-6305,"AV. VALDEMAR LOPES FERRAZ, 288 - CENTRO, OLIMPIA, SP, Brasil",-20.7393489,-48.90642099999999
UPA BELA VISTA (CRIANÇAS DE 0 A 14 ANOS),GVE 15 BAURU,BAURU,"RUA MARÇAL DE ARRUDA CAMPOS, Nº 4-45","BOTRÓPICO, CROTÁLICO, ELAPÍDICO, ESCORPIÔNICO, LONÔMICO E ARACNÍDICO.",(14) 3102-1213,"RUA MARÇAL DE ARRUDA CAMPOS, Nº 4-45, BAURU, SP, Brasil",-22.3086107,-49.0895903
PRONTO SOCORRO MUNICIPAL CENTRAL (PACIENTES À PARTIR DE 15 ANOS),GVE 15 BAURU,BAURU,"RUA RUBENS ARRUDA, QD. 07, S/N","BOTRÓPICO, CROTÁLICO, ELAPÍDICO, ESCORPIÔNICO E ARACNÍDICO.",(14) 3104-1160,"RUA RUBENS ARRUDA, QD. 07, S/N, BAURU, SP, Brasil",-22.3361567,-49.0766183
HOSPITAL DAS CLÍNICAS DE BOTUCATU – UNESP,GVE 16 BOTUCATU,BOTUCATU,"DISTRITO DE RUBIÃO JUNIOR, S/Nº","BOTRÓPICO, CROTÁLICO, ELAPÍDICO, LAQUÉTICO, ESCORPIÔNICO, ARACNÍDICO E LONÔMICO.",(14) 3811-6129,"DISTRITO DE RUBIÃO JUNIOR, S/Nº, BOTUCATU, SP, Brasil",-22.9263066,-48.6589406
HOSPITAL MUNICIPAL LEONARDUS VAN MELLIS,GVE 16 BOTUCATU,PARANAPANEMA,"RUA URIAS DOMINGUES LEITE, S/Nº, CENTRO",ESCORPIÔNICO,(14) 3713-9131,"RUA URIAS DOMINGUES LEITE, S/Nº, CENTRO, PARANAPANEMA, SP, Brasil",-23.3858806,-48.7250433
HOSPITAL MUNICIPAL WALDEMAR TEBALDI,GVE 17 CAMPINAS,AMERICANA,"AV. DA SAÚDE, 415, JD. N. SRA. FÁTIMA",ESCORPIÔNICO E ARACNÍDICO.,(19) 3471-6750,"AV. DA SAÚDE, 415, JD. N. SRA. FÁTIMA, AMERICANA, SP, Brasil",-22.7419297,-47.3085907
SANTA CASA ANNA CINTRA - AMPARO,GVE 17 CAMPINAS,AMPARO,"RUA ANNA CINTRA, 332","BOTRÓPICO, CROTÁLICO, ESCORPIÔNICO E ARACNÍDICO.",(19) 3807-4477,"RUA ANNA CINTRA, 332, AMPARO, SP, Brasil",-22.6969599,-46.7683826
COMPLEXO HOSPITALAR. PREF. EDIVALDO ORSI,GVE 17 CAMPINAS,CAMPINAS,"AV. RUY RODRIGUES, 3434 – CH. SÃO JOSÉ",ESCORPIÔNICO,(19) 3772-8347 / 3772-8373,"AV. RUY RODRIGUES, 3434 – CH. SÃO JOSÉ, CAMPINAS, SP, Brasil",-22.9632816,-47.1347658
HOSPITAL UNIVERSITÁRIO (0 A 18 ANOS),GVE 17 CAMPINAS,JUNDIAÍ,"PRAÇA ROTATÓRIA, S/N","BOTRÓPICO, CROTÁLICO, ARACNÍDICO E ESCORPIÔNICO.",(11) 4527-5700,"PRAÇA ROTATÓRIA, S/N, JUNDIAÍ, SP, Brasil",-23.1856528,-46.8892222
PRONTO SOCORRO ÉDSON MANO,GVE 17 CAMPINAS,SANTA BÁRBARA D’OESTE,"RUA ALICE ARANHA DE OLIVEIRA, 45 – VILA MARIA",ESCORPIÔNICO E ARACNÍDICO.,(19) 3464-9210,"RUA ALICE ARANHA DE OLIVEIRA, 45 – VILA MARIA, SANTA BÁRBARA D’OESTE, SP, Brasil",-22.7535186,-47.4190576
HOSPITAL ESTADUAL DR. LEANDRO FRANCESCHINI,GVE 17 CAMPINAS, SUMARE,"AV. DA AMIZADE, 2400 – JD. BELA VISTA",ESCORPIÔNICO E ARACNÍDICO.,(19) 3883-8899,"AV. DA AMIZADE, 2400 – JD. BELA VISTA,  SUMARE, SP, Brasil",-22.8163547,-47.2421788
SANTA CASA DE MISERICÓRDIA - FRANCA,GVE 18 FRANCA, FRANCA,"PRAÇA DOM PEDRO II, 1826","BOTRÓPICO, CROTÁLICO, ELAPÍDICO, LAQUÉTICO, ESCORPIÔNICO, ARACNÍDICO E LONÔMICO.",(16) 3711-4000,"PRAÇA DOM PEDRO II, 1826,  FRANCA, SP, Brasil",-23.0873721,-47.2145809
SANTA CASA DE MISERICÓRDIA,GVE 18 FRANCA, IPUA,"R. FERDINANDO FRATIN, 335","BOTRÓPICO, CROTÁLICO, ARACNÍDICO E ESCORPIÔNICO.",(16) 3832-1222,"R. FERDINANDO FRATIN, 335,  IPUA, SP, Brasil",-20.438796,-48.0087704
SANTA CASA DE MISERICÓRDIA - ITUVERAVA,GVE 18 FRANCA, ITUVERAVA,"R. CAP. ANTONIO JUSTINO FALEIRO, 729","BOTRÓPICO, CROTÁLICO, ARACNÍDICO E ESCORPIÔNICO.",(16) 3839-1200,"R. CAP. ANTONIO JUSTINO FALEIRO, 729,  ITUVERAVA, SP, Brasil",-20.3392259,-47.78836769999999
HOSP. BENEFICENTE SANTO ANTONIO DE ORLÂNDIA,GVE 18 FRANCA, ORLÂNDIA,"AV. 3, 941","BOTRÓPICO, CROTÁLICO, ARACNÍDICO E ESCORPIÔNICO.",(16) 3820-4200,"AV. 3, 941,  ORLÂNDIA, SP, Brasil",-20.716667,-47.884361
SANTA CASA DE MISERICÓRDIA - ADAMANTINA,GVE 19 MARILIA,ADAMANTINA,"R. JOAQUIM LUIZ VIANA, 209","BOTRÓPICO, CROTÁLICO, ARACNÍDICO E ESCORPIÔNICO.",(18) 3502-2200,"R. JOAQUIM LUIZ VIANA, 209, ADAMANTINA, SP, Brasil",-21.6935273,-51.0722978
PRONTO ATENDIMENTO DE IACRI,GVE 19 MARILIA,IACRI,"RUA BANDEIRANTES 1.341, CENTRO",ESCORPIÔNICO,(14) 3489-1294,"RUA BANDEIRANTES 1.341, CENTRO, IACRI, SP, Brasil",-21.8629557,-50.69189369999999
HOSPITAL DE CLÍNICAS I (ADULTOS),GVE 19 MARILIA,MARILIA,"R. AZIZ ATALLAH, S/Nº","BOTRÓPICO, CROTÁLICO, ELAPÍDICO, ESCORPIÔNICO, ARACNÍDICO E LONÔMICO.",(14) 3434-2525,"R. AZIZ ATALLAH, S/Nº, MARILIA, SP, Brasil",-22.1809338,-49.9565486
SANTA CASA DE MISERICÓRDIA,GVE 20 PIRACICABA,ARARAS,"PRAÇA DR. NARCISO GOMES, 49","BOTRÓPICO, CROTÁLICO, ARACNÍDICO E ESCORPIÔNICO.",(19) 3543-5400,"PRAÇA DR. NARCISO GOMES, 49, ARARAS, SP, Brasil",-22.3576136,-47.3811414
SANTA CASA DE MISERICÓRDIA,GVE 20 PIRACICABA,CAPIVARI,"PRAÇA DR. MÁRIO DIAS DE AGUIAR, 1, CENTRO",BOTRÓPICO E ESCORPIÔNICO.,(19) 3491-9191,"PRAÇA DR. MÁRIO DIAS DE AGUIAR, 1, CENTRO, CAPIVARI, SP, Brasil",-22.9957922,-47.50363540000001
HOSPITAL SÃO JOSÉ,GVE 20 PIRACICABA,ITIRAPINA,"AV. NOVE, 709, VILA CIANELI",ESCORPIÔNICO,(19) 3575-9200,"AV. NOVE, 709, VILA CIANELI, ITIRAPINA, SP, Brasil",-22.2496429,-47.8222529
HOSPITAL UNIVERSITÁRIO (HOSP. REGIONAL),GVE 21 PRESIDENTE PRUDENTE,PRESIDENTE PRUDENTE,"RUA JOSÉ BOGIOVANI, Nº 900","BOTRÓPICO, CROTÁLICO, ELAPÍDICO, ESCORPIÔNICO, ARACNÍDICO E LONÔMICO.",(18) 3229-1500,"RUA JOSÉ BOGIOVANI, Nº 900, PRESIDENTE PRUDENTE, SP, Brasil",-22.1333477,-51.4042728
UBS III (PRONTO ATENDIMENTO MUNICIPAL),GVE 22 PRESIDENTE VENCESLAU,EUCLIDES DA CUNHA PAULISTA,"RUA HELENA KILL DINIZ, Nº 1.621 – CENTRO","BOTRÓPICO, CROTÁLICO, ESCORPIÔNICO E ARACNÍDICO.",(18) 3283-1277,"RUA HELENA KILL DINIZ, Nº 1.621 – CENTRO, EUCLIDES DA CUNHA PAULISTA, SP, Brasil",-22.5571711,-52.5896735
SANTA CASA DE MISERICÓRDIA,GVE 22 PRESIDENTE VENCESLAU,PRESIDENTE EPITACIO,"R. ANTONIO VENÂNCIO LOPES, Nº 09 - 52","BOTRÓPICO, CROTÁLICO, ESCORPIÔNICO E ARACNÍDICO.",(18) 3251-8010,"R. ANTONIO VENÂNCIO LOPES, Nº 09 - 52, PRESIDENTE EPITACIO, SP, Brasil",-21.7638921,-52.1205665
SANTA CASA DE MISERICÓRDIA,GVE 22 PRESIDENTE VENCESLAU,PRESIDENTE VENCESLAU,RUA EMILIANO VILANOVA Nº 66,"BOTRÓPICO, CROTÁLICO, ESCORPIÔNICO E ARACNÍDICO.",(18) 3271-2411,"RUA EMILIANO VILANOVA Nº 66, PRESIDENTE VENCESLAU, SP, Brasil",-21.8671322,-51.8417229
HOSPITAL REGIONAL DE TEODORO SAMPAIO,GVE 22 PRESIDENTE VENCESLAU,TEODORO SAMPAIO,"ALAMEDA TRIFON INFANTE ALGARIM, 1430","BOTRÓPICO, CROTÁLICO, ESCORPIÔNICO E ARACNÍDICO.",(18) 3828-1333,"ALAMEDA TRIFON INFANTE ALGARIM, 1430, TEODORO SAMPAIO, SP, Brasil",-22.5334861,-52.1708268
PRONTO ATENDIMENTO,GVE 23 REGISTRO,BARRA DO TURVO,"VEREADOR FIRMINO PEDROSO DOS SANTOS, 375 - BAIRRO BOA ESPERANÇA","BOTRÓPICO, CROTÁLICO, ESCORPIÔNICO E ARACNÍDICO.",(15) 3578-9420,"VEREADOR FIRMINO PEDROSO DOS SANTOS, 375 - BAIRRO BOA ESPERANÇA, BARRA DO TURVO, SP, Brasil",-24.7512026,-48.50520640000001
PRONTO ATENDIMENTO REYNALDO GUERRA,GVE 23 REGISTRO,CAJATI,"RUA ANTÔNIO DOMINGOS BRECHÓ, 116 - CENTRO","BOTRÓPICO, ESCORPIÔNICO E ARACNÍDICO.",(13) 3854-8500,"RUA ANTÔNIO DOMINGOS BRECHÓ, 116 - CENTRO, CAJATI, SP, Brasil",-24.7223908,-48.1107117
UNIDADE MISTA,GVE 23 REGISTRO,CANANEIA,"RUA LUIZ WILSON BARBOSA, 100 - RETIRO DAS CARAVELAS","BOTRÓPICO, ESCORPIÔNICO E ARACNÍDICO.",(13) 3851-1419,"RUA LUIZ WILSON BARBOSA, 100 - RETIRO DAS CARAVELAS, CANANEIA, SP, Brasil",-25.0017661,-47.9316095
PRONTO ATENDIMENTO,GVE 23 REGISTRO,ELDORADO,"PRAÇA ENGENHEIRO BAUER, 56 - CENTRO","BOTRÓPICO, ESCORPIÔNICO E ARACNÍDICO.",(13) 3871-1599,"PRAÇA ENGENHEIRO BAUER, 56 - CENTRO, ELDORADO, SP, Brasil",-24.5242263,-48.1050084
UNIDADE MISTA,GVE 23 REGISTRO,IGUAPE,"RUA DOS ESTUDANTES, 40 - CENTRO","BOTRÓPICO, ESCORPIÔNICO E ARACNÍDICO.",(13) 3841-3366,"RUA DOS ESTUDANTES, 40 - CENTRO, IGUAPE, SP, Brasil",-24.7112401,-47.5592948
PRONTO ATENDIMENTO VALDIR M SAMPAIO,GVE 23 REGISTRO,ILHA COMPRIDA,"RUA BOM JESUS DE IGUAPE, S/N - SAMBURA","BOTRÓPICO, ESCORPIÔNICO E ARACNÍDICO.",(13) 3842-1629,"RUA BOM JESUS DE IGUAPE, S/N - SAMBURA, ILHA COMPRIDA, SP, Brasil",-24.7378277,-47.5506359
PRONTO ATENDIMENTO LAURO TAVARES DE LIMA,GVE 23 REGISTRO,IPORANGA,"RUA 12 DE JANEIRO, 17 - CENTRO","BOTRÓPICO, CROTÁLICO, ARACNÍDICO E ESCORPIÔNICO.",(15) 3556-1584,"RUA 12 DE JANEIRO, 17 - CENTRO, IPORANGA, SP, Brasil",-24.5867882,-48.5970738
PRONTO ATENDIMENTO,GVE 23 REGISTRO,JACUPIRANGA,"RUA EUNICE CARNEIRO DE PAULA, 101 - CENTRO","BOTRÓPICO, ESCORPIÔNICO E ARACNÍDICO.",(13) 3864-3440,"RUA EUNICE CARNEIRO DE PAULA, 101 - CENTRO, JACUPIRANGA, SP, Brasil",-23.7015514,-46.5529056
PRONTO SOCORRO DRº MANOEL PEREZ BAZAN,GVE 23 REGISTRO,JUQUIA,"AV. EXPEDICIONÁRIO APARÍCIO, S/Nº - ESTAÇÃO","BOTRÓPICO, ESCORPIÔNICO E ARACNÍDICO.",(13) 3844-3450,"AV. EXPEDICIONÁRIO APARÍCIO, S/Nº - ESTAÇÃO, JUQUIA, SP, Brasil",-24.3243493,-47.6293292
PRONTO ATENDIMENTO MIYOJI KAYO,GVE 23 REGISTRO,MIRACATU,"AV. DONA EVARISTA DE CASTRO FERREIRA, 77 - CENTRO","BOTRÓPICO, ESCORPIÔNICO E ARACNÍDICO.",(13) 3847-7010,"AV. DONA EVARISTA DE CASTRO FERREIRA, 77 - CENTRO, MIRACATU, SP, Brasil",-24.2859932,-47.4585472
HOSPITAL REGIONAL DRº LEOPOLDO BEVILACQUA,GVE 23 REGISTRO,PARIQUERAACU,"RUA DO EXPEDICIONÁRIOS, 140 - CENTRO","BOTRÓPICO, CROTÁLICO, ARACNÍDICO, LONÔMICO E ESCORPIÔNICO.",(13) 3856-9600,"RUA DO EXPEDICIONÁRIOS, 140 - CENTRO, PARIQUERAACU, SP, Brasil",-24.715109,-47.8753472
UNIDADE MISTA,GVE 23 REGISTRO,PEDRO DE TOLEDO,"AV. CORONEL RAIMUNDO VASCONCELOS, 360 - CENTRO","BOTRÓPICO, ARACNÍDICO E ESCORPIÔNICO.",(13) 3419-7010,"AV. CORONEL RAIMUNDO VASCONCELOS, 360 - CENTRO, PEDRO DE TOLEDO, SP, Brasil",-24.274866,-47.23287990000001
HOSPITAL SÃO JOÃO,GVE 23 REGISTRO,REGISTRO,"RUA KIHEIJI NASUNO, 165 - CENTRO",BOTRÓPICO E ARACNÍDICO.,(13) 3821-1111,"RUA KIHEIJI NASUNO, 165 - CENTRO, REGISTRO, SP, Brasil",-24.4928035,-47.84026009999999
HOSPITAL REGIONAL DE REGISTRO,GVE 23 REGISTRO,REGISTRO,"RODOVIA REGIS BITENCOURT, S/Nº KM499","BOTRÓPICO, CROTÁLICO, ELAPÍDICO E LONÔMICO.",(13) 3500-8944,"RODOVIA REGIS BITENCOURT, S/Nº KM499, REGISTRO, SP, Brasil",-24.4597315,-47.8158624
UPA - BATATAIS,GVE 24 RIBEIRAO PRETO,BATATAIS,"AV. MOACIR DIAS DE MORAIS, 505",ESCORPIÔNICO,(16) 3761-9474 / 3761-9499,"AV. MOACIR DIAS DE MORAIS, 505, BATATAIS, SP, Brasil",-20.9045343,-47.587758
PRONTO SOCORRO MUNICIPAL DE CRAVINHOS,GVE 24 RIBEIRAO PRETO,CRAVINHOS,"AV. DONA RITA CANDIDA NOGUEIRA, 48, CENTRO",ESCORPIÔNICO,(16) 3951-9020,"AV. DONA RITA CANDIDA NOGUEIRA, 48, CENTRO, CRAVINHOS, SP, Brasil",-21.3367281,-47.7322655
HOSP. CLÍNICAS FMRP - USP,GVE 24 RIBEIRAO PRETO,RIBEIRAO PRETO,"RUA BERNARDINO DE CAMPOS, 1.000, CENTRO","BOTRÓPICO, CROTÁLICO, ELAPÍDICO, ESCORPIÔNICO, ARACNÍDICO E LONÔMICO.",(16) 3602-1190 / 1149,"RUA BERNARDINO DE CAMPOS, 1.000, CENTRO, RIBEIRAO PRETO, SP, Brasil",-21.1804015,-47.8154506
UPA DE SERTÃOZINHO,GVE 24 RIBEIRAO PRETO,SERTAOZINHO,"RUA PEDRO CARLETO NETTO, 12 - JD. GRANDE ALIANÇA",ESCORPIÔNICO,(16) 3947-1270 / 3947-1159,"RUA PEDRO CARLETO NETTO, 12 - JD. GRANDE ALIANÇA, SERTAOZINHO, SP, Brasil",-21.1191311,-48.00292650000001
HOSPITAL MUNICIPAL DE BERTIOGA,GVE 25 SANTOS,BERTIOGA,PÇA. VICENTE MOLINARI S/Nº,"BOTRÓPICO, ARACNÍDICO E ESCORPIÔNICO.",(13) 3319-9040,"PÇA. VICENTE MOLINARI S/Nº, BERTIOGA, SP, Brasil",-23.8422892,-46.1401669
P.S. CENTRAL GUIOMAR FERREIRA ROEBBELEN - CUBATÃO,GVE 25 SANTOS,CUBATAO,AV. 9 DE ABRIL S/Nº,"BOTRÓPICO, ARACNÍDICO E ESCORPIÔNICO.",(13) 3361-8786,"AV. 9 DE ABRIL S/Nº, CUBATAO, SP, Brasil",-23.8865746,-46.4203105
HOSP. SANTO AMARO - GUARUJÁ,GVE 25 SANTOS,GUARUJA,R. QUINTO BERTOLDI Nº40 V. MAIA,"BOTRÓPICO, ARACNÍDICO E ESCORPIÔNICO.",(13) 3389-1515,"R. QUINTO BERTOLDI Nº40 V. MAIA, GUARUJA, SP, Brasil",-23.9904501,-46.2538329
UPA ITANHAÉM,GVE 25 SANTOS,ITANHAEM,"R. JOSÉ ERNESTO BECHELLI, S/N. JD. SABAÚNA","BOTRÓPICO, CROTÁLICO, ESCORPIÔNICO E ARACNÍDICO.",(13) 3427-1111,"R. JOSÉ ERNESTO BECHELLI, S/N. JD. SABAÚNA, ITANHAEM, SP, Brasil",-24.1832641,-46.8166269
UPA MONGAGUÁ,GVE 25 SANTOS,MONGAGUA,"AV. MONTEIRO LOBATO, 9.400 – AGENOR DE CAMPOS","BOTRÓPICO, CROTÁLICO, ARACNÍDICO E ESCORPIÔNICO.",(13) 3507-1110,"AV. MONTEIRO LOBATO, 9.400 – AGENOR DE CAMPOS, MONGAGUA, SP, Brasil",-24.1237542,-46.6815446
PS QUIETUDE,GVE 25 SANTOS,PRAIA GRANDE,"AV. MINISTRO MARCOS FREIRE, S/N, JD. QUIETUDE","BOTRÓPICO, CROTÁLICO, ARACNÍDICO E ESCORPIÔNICO.",(13) 3471-4221,"AV. MINISTRO MARCOS FREIRE, S/N, JD. QUIETUDE, PRAIA GRANDE, SP, Brasil",-24.0199603,-46.4773286
UNIDADE DE PRONTO ATENDIMENTO,GVE 26 SAO JOAO DA BOA VISTA,MOGI MIRIM,"ROD. ELZIO MARIOTONI, 369",ESCORPIÔNICO,(19) 3804-1011,"ROD. ELZIO MARIOTONI, 369, MOGI MIRIM, SP, Brasil",-22.4311766,-46.9384332
"PRONTO SOCORRO DA IRMANDADE DO HOSPITAL E MATERNIDADE """"CEL. JUCA FERREIRA""""""",GVE 26 SAO JOAO DA BOA VISTA,SANTA CRUZ DAS PALMEIRAS,"RUA MONTEIRO DE BARROS, 179, CENTRO",ESCORPIÔNICO,(19) 3672-7200,"RUA MONTEIRO DE BARROS, 179, CENTRO, SANTA CRUZ DAS PALMEIRAS, SP, Brasil",-21.8248142,-47.2502892
FUSAM – FUNDAÇÃO DE SAÚDE E ASSISTÊNCIA DO MUNICÍPIO DE CAÇAPAVA,GVE 27 SAO JOSE DOS CAMPOS,CACAPAVA,"RUA DR. PEREIRA DE MATTOS, 63 - CENTRO","BOTRÓPICO, CROTÁLICO, ARACNÍDICO E ESCORPIÔNICO.",(12) 3654-8800,"RUA DR. PEREIRA DE MATTOS, 63 - CENTRO, CACAPAVA, SP, Brasil",-23.1044685,-45.7050195
UPA III DR THELMO DE ALMEIDA CRUZ - JACAREÍ,GVE 27 SAO JOSE DOS CAMPOS,JACAREI,"AV. ENGENHEIRO DAVID MONTEIRO LINO, 577 - CENTRO","BOTRÓPICO, CROTÁLICO, ELAPÍDICO, ARACNÍDICO E ESCORPIÔNICO.",(12) 3959-2270,"AV. ENGENHEIRO DAVID MONTEIRO LINO, 577 - CENTRO, JACAREI, SP, Brasil",-23.3001417,-45.9660883
UPA DE CARAGUATATUBA,GVE 28 CARAGUATATUBA,CARAGUATATUBA,"AV. MARANHÃO, 451, JD. PRIMAVERA","BOTRÓPICO, CROTÁLICO, ELAPÍDICO, ESCORPIÔNICO, ARACNÍDICO E LONÔMICO.",(12) 3897-2100,"AV. MARANHÃO, 451, JD. PRIMAVERA, CARAGUATATUBA, SP, Brasil",-23.6268118,-45.4181472
HOSP. MUNICIPAL GOV. MARIO COVAS,GVE 28 CARAGUATATUBA,ILHABELA,"R PROF. MALAQUIAS DE OLIVEIRA FREITAS, 154","BOTRÓPICO, CROTÁLICO, ELAPÍDICO, ESCORPIÔNICO, ARACNÍDICO E LONÔMICO.",(12) 3895-3520,"R PROF. MALAQUIAS DE OLIVEIRA FREITAS, 154, ILHABELA, SP, Brasil",-23.823452,-45.3785022
PRONTO SOCORRO CENTRAL,GVE 28 CARAGUATATUBA,SAO SEBASTIAO,"R CAPITÃO LUIS SOARES, 570","BOTRÓPICO, CROTÁLICO, ELAPÍDICO, ESCORPIÔNICO E ARACNÍDICO.",(12) 3893-3200,"R CAPITÃO LUIS SOARES, 570, SAO SEBASTIAO, SP, Brasil",-23.8040733,-45.4024764
SANTA CASA DE GENERAL SALGADO,GVE 29 SAO JOSE DO RIO PRETO,GENERAL SALGADO,"R. NADIR GARCIA, 555 - JARDIM PRIMAVERA, GEN. SALGADO - SP, 15300-000","BOTRÓPICO, CROTÁLICO E ESCORPIÔNICO.",(17) 3322-1198,"R. NADIR GARCIA, 555 - JARDIM PRIMAVERA, GEN. SALGADO - SP, 15300-000, GENERAL SALGADO, SP, Brasil",-20.6477039,-50.3583426
SANTA CASA DE MISERICÓRDIA,GVE 29 SAO JOSE DO RIO PRETO,JOSE BONIFACIO,"RUA XV DE NOVEMBRO S/N, BELA VISTA","BOTRÓPICO, CROTÁLICO, ARACNÍDICO E ESCORPIÔNICO.",(17) 3265-9022,"RUA XV DE NOVEMBRO S/N, BELA VISTA, JOSE BONIFACIO, SP, Brasil",-23.5554048,-46.6456426
P. S. MUNICIPAL DE NOVA GRANADA,GVE 29 SAO JOSE DO RIO PRETO,NOVA GRANADA,"AV. DR. HILDEBERTO A. FERREIRA, Nº 1271, CENTRO",ESCORPIÔNICO,(17) 3262-2843,"AV. DR. HILDEBERTO A. FERREIRA, Nº 1271, CENTRO, NOVA GRANADA, SP, Brasil",-20.538399,-49.3242647
IRMANDADE SANTA CASA DE MISERICÓRDIA,GVE 29 SAO JOSE DO RIO PRETO,NOVO HORIZONTE,"RUA VINTE E OITO DE OUTUBRO, 1202 - CENTRO","BOTRÓPICO, CROTÁLICO E ESCORPIÔNICO",(17) 3542-9292 / (17) 3542-1020,"RUA VINTE E OITO DE OUTUBRO, 1202 - CENTRO, NOVO HORIZONTE, SP, Brasil",-21.4664295,-49.226247
SANTA CASA DE MISERICÓRDIA,GVE 29 SAO JOSE DO RIO PRETO,RIOLANDIA,RUA 10 S/N,ESCORPIÔNICO,(17) 3291-1588,"RUA 10 S/N, RIOLANDIA, SP, Brasil",-19.9817095,-49.6806596
HOSPITAL MARIA VALLE PEREIRA,GVE 29 SAO JOSE DO RIO PRETO,TABAPUA,"RUA ADINAEL MOREIRA, Nº 1683 - CENTRO",ESCORPIÔNICO,(17) 3562-1811,"RUA ADINAEL MOREIRA, Nº 1683 - CENTRO, TABAPUA, SP, Brasil",-20.9621184,-49.034031
SANTA CASA DE TANABI,GVE 29 SAO JOSE DO RIO PRETO,TANABI,"AV. DA SAUDADE, 634, CENTRO",ESCORPIÔNICO,(17) 3274-0693,"AV. DA SAUDADE, 634, CENTRO, TANABI, SP, Brasil",-20.6279745,-49.6521527
HOSP. MUNICIPAL JOÃO VELOSO OUROESTE,GVE 30 JALES,OUROESTE,AV. BANDEIRANTES 1026 CENTRO,"BOTRÓPICO, CROTÁLICO, ESCORPIÔNICO E ARACNÍDICO.",(17) 3843-1312,"AV. BANDEIRANTES 1026 CENTRO, OUROESTE, SP, Brasil",-20.0046779,-50.3708141
UNIDADE DE PRONTO ATENDIMENTO (UPA) DE SANTA FÉ DO SUL,GVE 30 JALES,SANTA FE DO SUL,RUA 01 N 800 -CENTRO,"BOTRÓPICO, CROTÁLICO, ESCORPIÔNICO E ARACNÍDICO.",(17) 3631-1014,"RUA 01 N 800 -CENTRO, SANTA FE DO SUL, SP, Brasil",-20.2114923,-50.9271886
SANTA CASA DE ANGATUBA,GVE 31 SOROCABA,ANGATUBA,"PRAÇA LEVI LISBOA, Nº 1202","BOTRÓPICO, CROTÁLICO E ESCORPIÔNICO.",(15) 3255-1055,"PRAÇA LEVI LISBOA, Nº 1202, ANGATUBA, SP, Brasil",-23.4919878,-48.414215
SANTA CASA DE MISERICÓRDIA - CAPÃO BONITO,GVE 31 SOROCABA,CAPAO BONITO,"RUA DONA ALTA DE CAMARGO LÍRIO , Nº51","BOTRÓPICO, CROTÁLICO, ESCORPIÔNICO E ARACNÍDICO.",(15) 3542-1532 / 3543-9600,"RUA DONA ALTA DE CAMARGO LÍRIO , Nº51, CAPAO BONITO, SP, Brasil",-24.0081623,-48.3466498
HOSPITAL SANTA CASA - ITU,GVE 31 SOROCABA,ITU,"RUA JOAQUIM BERBARDES BORGES, 372","BOTRÓPICO, CROTÁLICO E ESCORPIÔNICO.",(11) 4013-8000,"RUA JOAQUIM BERBARDES BORGES, 372, ITU, SP, Brasil",-23.2705044,-47.29529160000001
HOSPITAL DOUTOR ADEMAR DE BARROS - APIAÍ,GVE 32 ITAPEVA,APIAI,"R. PRIMEIRO DE MAIO, 336 - CENTRO","BOTRÓPICO, CROTÁLICO, ESCORPIÔNICO, ARACNÍDICO E LONÔMICO.",(15) 3552-1266,"R. PRIMEIRO DE MAIO, 336 - CENTRO, APIAI, SP, Brasil",-24.5154112,-48.8426501
PRONTO ATENDIMENTO MUNICIPAL ÍTALO SANTUCCI,GVE 32 ITAPEVA,BURI,"R. RUI BARBOSA, 158 - CENTRO","ESCORPIÔNICO, ARACNÍDICO.",(15) 3546-1133,"R. RUI BARBOSA, 158 - CENTRO, BURI, SP, Brasil",-23.7989352,-48.60084210000001
CENTRO DE ATENDIMENTO JOAQUIM RAIMUNDO GOMES,GVE 32 ITAPEVA,GUAPIARA,"AV. JACOBE RODOLFO, 229, GUAPIARA - SP, 18310-000","BOTRÓPICO, CROTÁLICO, ESCORPIÔNICO, FONÊUTRICO, ARACNÍDICO E LONÔMICO.",(15) 3547-1270,"AV. JACOBE RODOLFO, 229, GUAPIARA - SP, 18310-000, GUAPIARA, SP, Brasil",-24.1847611,-48.53549959999999
UNIDADE DE SAÚDE JOÃO RODRIGUES DE PROENÇA,GVE 32 ITAPEVA,NOVA CAMPINA,"R. JOÃO NUNES DE OLIVEIRA, 525 - CENTRO - 18435-000",ESCORPIÔNICO E ARACNÍDICO.,(15) 3535-1264,"R. JOÃO NUNES DE OLIVEIRA, 525 - CENTRO - 18435-000, NOVA CAMPINA, SP, Brasil",-24.1210657,-48.906994
HOSP. MUNICIPAL MARIA ROSA CARDOSO,GVE 32 ITAPEVA,RIBEIRAO BRANCO,"RUA CAPITÃO ELIAS PEREIRA, Nº1.245","BOTRÓPICO, CROTÁLICO, ESCORPIÔNICO E ARACNÍDICO.",(15) 3553-1144 E (15) 99716-4744,"RUA CAPITÃO ELIAS PEREIRA, Nº1.245, RIBEIRAO BRANCO, SP, Brasil",-24.22573,-48.7678377
UNIDADE MISTA DE SAÚDE MONS CID FRANCA SANTOS,GVE 33 TAUBATE,BANANAL,AV. BOM JESUS 134 - CENTRO - CEP 12.850-000,"BOTRÓPICO, CROTÁLICO, ESCORPIÔNICO E ARACNÍDICO.",(12) 3116-2188 / (12) 3116-3117,"AV. BOM JESUS 134 - CENTRO - CEP 12.850-000, BANANAL, SP, Brasil",-22.681301,-44.3197734
PRONTO ATENDIMENTO MUNICIPAL,GVE 33 TAUBATE,CAMPOS DO JORDAO,"RUA HARRY MAURITZ LENIN, S/N - BAIRRO STA. CRUZ - CEP 12.460-000","BOTRÓPICO, CROTÁLICO, ESCORPIÔNICO E ARACNÍDICO.",(12) 3664-4424 / (12) 3664-5292,"RUA HARRY MAURITZ LENIN, S/N - BAIRRO STA. CRUZ - CEP 12.460-000, CAMPOS DO JORDAO, SP, Brasil",-22.7451551,-45.6238262
SANTA CASA DE MISERICÓRDIA,GVE 33 TAUBATE,CRUZEIRO,AV. MAJOR NOVAES 715 - CEP 12.701-330,"BOTRÓPICO, CROTÁLICO, ESCORPIÔNICO E ARACNÍDICO.",(12) 3184-7001,"AV. MAJOR NOVAES 715 - CEP 12.701-330, CRUZEIRO, SP, Brasil",-22.5753078,-44.9643963
SANTA CASA MATERNIDADE N.S. CONCEIÇÃO,GVE 33 TAUBATE,CUNHA,AV. PADRE RODOLFO 320 ALTO DO CRUZEIRO - CEP 12.530-000,"BOTRÓPICO, CROTÁLICO, ESCORPIÔNICO E ARACNÍDICO.",(12) 3111-2926 / (12) 3111-2833,"AV. PADRE RODOLFO 320 ALTO DO CRUZEIRO - CEP 12.530-000, CUNHA, SP, Brasil",-23.0769403,-44.958961
CENTRO DE SAÚDE III,GVE 33 TAUBATE,LAGOINHA,"R: ANTONIO DA CUNHA BUENO, 25, CEP:12130-000","BOTRÓPICO, CROTÁLICO, ESCORPIÔNICO E ARACNÍDICO.",(12) 3647-1238 R 29,"R: ANTONIO DA CUNHA BUENO, 25, CEP:12130-000, LAGOINHA, SP, Brasil",-23.0896052,-45.19201349999999
PRONTO SOCORRO MUNICIPAL,GVE 33 TAUBATE,LORENA,R. DOM BOSCO 562 CENTRO - CEP 12.600-100,"BOTRÓPICO, CROTÁLICO, ESCORPIÔNICO E ARACNÍDICO.",(12) 3159-3344,"R. DOM BOSCO 562 CENTRO - CEP 12.600-100, LORENA, SP, Brasil",-22.7340424,-45.1200735
PRONTO SOCORRO MUNICIPAL,GVE 33 TAUBATE,PINDAMONHANGABA,R. MAJOR JOSÉ DOS SANTOS MOREIRA 466 - CEP 12.410-050,"BOTRÓPICO, CROTÁLICO, ESCORPIÔNICO E ARACNÍDICO.",(12) 3550-0597 / (12) 3550-0600,"R. MAJOR JOSÉ DOS SANTOS MOREIRA 466 - CEP 12.410-050, PINDAMONHANGABA, SP, Brasil",-22.9309154,-45.4590603
PRONTO SOCORRO MUNICIPAL,GVE 33 TAUBATE,SAO BENTO DO SAPUCAI,"PRAÇA GENERAL MARCONDES SALGADO, 34 CENTRO","BOTRÓPICO, CROTÁLICO, ESCORPIÔNICO E ARACNÍDICO.",(12) 3971-7000,"PRAÇA GENERAL MARCONDES SALGADO, 34 CENTRO, SAO BENTO DO SAPUCAI, SP, Brasil",-22.6870853,-45.7304672
SANTA CASA DE MISERICÓRDIA,GVE 33 TAUBATE,SAO LUIS DO PARAITINGA,PRAÇA CORONEL TEODORO COELHO 48 - CENTRO - CEP 12.140-000,"BOTRÓPICO, CROTÁLICO, ESCORPIÔNICO E ARACNÍDICO.",(12) 3671-1299,"PRAÇA CORONEL TEODORO COELHO 48 - CENTRO - CEP 12.140-000, SAO LUIS DO PARAITINGA, SP, Brasil",-23.2218914,-45.3105592
PRONTO SOCORRO MUNICIPAL DE TAUBATÉ,GVE 33 TAUBATE,TAUBATE,RUA BENEDITO CURSINO DOS SANTOS 101 - CENTRO - CEP 12.030-190,"BOTRÓPICO, CROTÁLICO, ELAPÍDICO, ESCORPIÔNICO, ARACNÍDICO E LONÔMICO.",(12) 3621-6036,"RUA BENEDITO CURSINO DOS SANTOS 101 - CENTRO - CEP 12.030-190, TAUBATE, SP, Brasil",-23.0299869,-45.5673735
HOSPITAL DE URGÊNCIA - S.B. DO CAMPO,GVE 7 SANTO ANDRE,SAO BERNARDO DO CAMPO,"R. JOAQUIM NABUCO, 380 - CENTRO, CEP: 09720-375",ESCORPIÔNICO,(11) 2630-9827 / 9824 /966051801,"R. JOAQUIM NABUCO, 380 - CENTRO, CEP: 09720-375, SAO BERNARDO DO CAMPO, SP, Brasil",-23.7157562,-46.5545956
HOSPITAL MUNICIPAL DA CRIANÇA E DO ADOLESCENTE DE GUARULHOS,GVE 8 MOGI DAS CRUZES,GUARULHOS,"RUA JOSÉ MAURÍCIO, 191 - CENTRO, GUARULHOS - SP, CEP 07011-060","BOTRÓPICO, CROTÁLICO E ESCORPIÔNICO.",(11) 2475-9688,"RUA JOSÉ MAURÍCIO, 191 - CENTRO, GUARULHOS - SP, CEP 07011-060, GUARULHOS, SP, Brasil",-23.4670834,-46.532244
SANTA CASA DE MISERICÓRDIA,GVE 8 MOGI DAS CRUZES,SALESOPOLIS,"RUA PRAÇA JOÃO MENDES,31","BOTRÓPICO, CROTÁLICO, ARACNÍDICO, ESCORPIÔNICO E LONÔMICO.",(11) 4696-1411,"RUA PRAÇA JOÃO MENDES,31, SALESOPOLIS, SP, Brasil",-23.5339144,-45.8495613
UPA- UNIDADE DE PRONTO ATENDIMENTO SANTA ISABEL,GVE 8 MOGI DAS CRUZES,SANTA ISABEL,"RUA PRESID. CASTELO BRANCO, 320 - BROTAS - SANTA ISABEL","BOTRÓPICO, CROTÁLICO, ARACNÍDICO E ESCORPIÔNICO.",(11) 4656-81504,"RUA PRESID. CASTELO BRANCO, 320 - BROTAS - SANTA ISABEL, SANTA ISABEL, SP, Brasil",-23.3078036,-46.23059199999999
SANTA CASA DE MISERICÓRDIA DE ITÁPOLIS,GVE 12 ARARAQUARA,ITÁPOLIS,"RUA ANTONIO COMPAGNO, 411, CENTRO","BOTRÓPICO, CROTÁLICO, ARACNÍDICO E ESCORPIÔNICO",(16) 3263-9500,"RUA ANTONIO COMPAGNO, 411, CENTRO, ITÁPOLIS, SP, Brasil",-21.5940486,-48.8050538
SANTA CASA DE MACAUBAL,GVE 29 SÃO JOSÉ DO RIO PRETO,MACAUBAL,"RUA SETE DE SETEMBRO, Nº 1203 - CENTRO, 15270-000",ESCORPIÔNICO,(17) 3874-1408,"RUA SETE DE SETEMBRO, Nº 1203 - CENTRO, 15270-000, MACAUBAL, SP, Brasil",-22.9260652,-46.5002909
CS DE ORINDIÚVA,GVE 29 SAO JOSE DO RIO PRETO,ORINDIÚVA,"AV. FRANCISCO TOMÁS AQUINO, 170 - 250, ORINDIÚVA - SP, 15480-000","BOTRÓPICO, CROTÁLICO E ESCORPIÔNICO",(17) 3816-1297,"AV. FRANCISCO TOMÁS AQUINO, 170 - 250, ORINDIÚVA - SP, 15480-000, ORINDIÚVA, SP, Brasil",-20.1833312,-49.3521583
HOSPITAL SÃO LOURENÇO - URUPÊS,GVE 29 SAO JOSE DO RIO PRETO,URUPÊS,"R. BARÃO DO RIO BRANCO, 226-372, CENTRO - 15850-000",ESCORPIÔNICO,(17) 3552-1339,"R. BARÃO DO RIO BRANCO, 226-372, CENTRO - 15850-000, URUPÊS, SP, Brasil",-21.2042696,-49.2933644
HOSPITAL GERAL DE TAIPAS “KÁTIA DE SOUZA RODRIGUES”,GVE 1 CAPITAL,SAO PAULO,"AV. ELÍSIO TEIXEIRA LEITE, 6999, JARAGUÁ",ESCORPIÔNICO,(11) 3973-0400,"AV. ELÍSIO TEIXEIRA LEITE, 6999, JARAGUÁ, SAO PAULO, SP, Brasil",-23.440989,-46.7175205
HOSPITAL MUNICIPAL DR. CARMINO CARRICCHIO (HOSPITAL DO TATUAPÉ),GVE 1 CAPITAL,SAO PAULO,"AV. CELSO GARCIA, 4815, TATUAPÉ",ESCORPIÔNICO,(11) 3394-6980,"AV. CELSO GARCIA, 4815, TATUAPÉ, SAO PAULO, SP, Brasil",-23.5327049,-46.5665286
HOSPITAL MUNICIPAL TIDE SETÚBAL,GVE 1 CAPITAL,SAO PAULO,"R. DR. JOSÉ GUILHERME EIRAS, 123 - SÃO MIGUEL PAULISTA",ESCORPIÔNICO,(11) 3394-8770,"R. DR. JOSÉ GUILHERME EIRAS, 123 - SÃO MIGUEL PAULISTA, SAO PAULO, SP, Brasil",-23.4970395,-46.44005689999999
HOSPITAL REGIONAL DE COTIA,GVE 10 OSASCO,COTIA,"AV. ODAIR PACHECO PEDROSO, Nº 171","BOTRÓPICO, CROTÁLICO, ELAPÍDICO, ARACNÍDICO, ESCORPIÔNICO E LONÔMICO",(11) 4148-2222 E 4148-4527,"AV. ODAIR PACHECO PEDROSO, Nº 171, COTIA, SP, Brasil",-23.6279426,-46.9125302
UNIDADE MISTA DE SAÚDE - JUQUITIBA,GVE 10 OSASCO,JUQUITIBA,"RUA JOSÉ ANTONIO NUNES, Nº 90","BOTRÓPICO, CROTÁLICO, ARACNÍDICO, ESCORPIÔNICO E LONÔMICO.",(11) 4681-4226,"RUA JOSÉ ANTONIO NUNES, Nº 90, JUQUITIBA, SP, Brasil",-23.9331845,-47.06983320000001
SANTA CASA DE ANDRADINA,GVE 11 ARACATUBA,ANDRADINA,"AV. GUANABARA, 730","BOTRÓPICO, CROTÁLICO, ARACNÍDICO E ESCORPIÔNICO",(18) 3702-1100,"AV. GUANABARA, 730, ANDRADINA, SP, Brasil",-20.8897749,-51.3721688
SANTA CASA DE MISERICÓRDIA DE ARAÇATUBA,GVE 11 ARACATUBA,ARACATUBA,"RUA FLORIANO PEIXOTO, 896 VILA MENDONÇA","BOTRÓPICO, CROTÁLICO, ELAPÍDICO, ARACNÍDICO, ESCORPIÔNICO E LONÔMICO.",(18) 3607-3000,"RUA FLORIANO PEIXOTO, 896 VILA MENDONÇA, ARACATUBA, SP, Brasil",-21.2061015,-50.42944319999999
SANTA CASA DE MISERICÓRDIA SÃO FRANCISCO,GVE 11 ARACATUBA,BURITAMA,"RUA GUILHERME GUERBAS, 353","BOTRÓPICO, CROTÁLICO, ARACNÍDICO E ESCORPIÔNICO",(18) 3691-9535,"RUA GUILHERME GUERBAS, 353, BURITAMA, SP, Brasil",-21.0700593,-50.149919
HOSPITAL SOCIEDADE BENEFICENTE,GVE 11 ARACATUBA,CASTILHO,"RUA NAGIB MUHANA ZAHR, 457","BOTRÓPICO, CROTÁLICO, ARACNÍDICO E ESCORPIÔNICO",(18) 3741-1580,"RUA NAGIB MUHANA ZAHR, 457, CASTILHO, SP, Brasil",-20.8714699,-51.4915768
SANTA CASA DE GUARARAPES,GVE 11 ARACATUBA,GUARARAPES,"AV. MARECHAL FLORIANO, 1.062","BOTRÓPICO, CROTÁLICO, ARACNÍDICO E ESCORPIÔNICO",(18) 3661-1794,"AV. MARECHAL FLORIANO, 1.062, GUARARAPES, SP, Brasil",-21.257914,-50.633268
ASSOCIAÇÃO HOSPITALAR DE ILHA SOLTEIRA,GVE 11 ARACATUBA,ILHA SOLTEIRA,"ALAMEDA BAHIA, 618","BOTRÓPICO, CROTÁLICO, ARACNÍDICO E ESCORPIÔNICO",(18) 3743-1500,"ALAMEDA BAHIA, 618, ILHA SOLTEIRA, SP, Brasil",-20.4292875,-51.3408044
HOSP. EST. DR. OSWALDO BRANADI FARIA - MIRANDÓPOLIS,GVE 11 ARACATUBA,MIRANDOPOLIS,"AV. DR. RAUL DA CUNHA BUENO, 585","BOTRÓPICO, CROTÁLICO, ARACNÍDICO E ESCORPIÔNICO",(18) 3701-1611,"AV. DR. RAUL DA CUNHA BUENO, 585, MIRANDOPOLIS, SP, Brasil",-21.1250281,-51.1034666
SANTA CASA DE MISERICÓRDIA DE PENÁPOLIS,GVE 11 ARACATUBA,PENAPOLIS,"AV. SANTA CASA, 566","BOTRÓPICO, CROTÁLICO, ARACNÍDICO E ESCORPIÔNICO",(18) 3652-2210,"AV. SANTA CASA, 566, PENAPOLIS, SP, Brasil",-21.4233016,-50.0717155
SANTA CASA DE PEREIRA BARRETO,GVE 11 ARACATUBA,PEREIRA BARRETO,"RUA DERMIVAL FRANCESCHI, 505","BOTRÓPICO, CROTÁLICO, ARACNÍDICO E ESCORPIÔNICO",(18) 3704-4255,"RUA DERMIVAL FRANCESCHI, 505, PEREIRA BARRETO, SP, Brasil",-20.6342897,-51.104964
SANTA CASA DE VALPARAÍSO,GVE 11 ARACATUBA,VALPARAISO,"RUA BARTOLOMEU BUENO, 241","BOTRÓPICO, CROTÁLICO, ARACNÍDICO E ESCORPIÔNICO",(18) 3701-1421,"RUA BARTOLOMEU BUENO, 241, VALPARAISO, SP, Brasil",-21.2270507,-50.8623999
UPA CENTRAL AMELIA BERNARDINO CUTRALE,GVE 12 ARARAQUARA,ARARAQUARA,"AV MARIA ANTONIA CAMARGO DE OLIVEIRA, 3821 - VILA FERROVIARIA","BOTRÓPICO, CROTÁLICO, ELAPÍDICO, ARACNÍDICO, ESCORPIÔNICO E LONÔMICO.",(16) 3334-6900,"AV MARIA ANTONIA CAMARGO DE OLIVEIRA, 3821 - VILA FERROVIARIA, ARARAQUARA, SP, Brasil",-21.7734298,-48.1667588
SANTA CASA DE CARIDADE E MATERNIDADE,GVE 12 ARARAQUARA,IBITINGA,"R. DOMINGOS ROBERT, 1090","BOTRÓPICO, CROTÁLICO, ARACNÍDICO E ESCORPIÔNICO",(16) 3352-7711,"R. DOMINGOS ROBERT, 1090, IBITINGA, SP, Brasil",-21.7525773,-48.8277193
HOSPITAL CARLOS FERNANDO MALZONI,GVE 12 ARARAQUARA,MATAO,"R. SINHARINHA FROTA, 556","BOTRÓPICO, CROTÁLICO, ARACNÍDICO E ESCORPIÔNICO",(16) 3383-2500,"R. SINHARINHA FROTA, 556, MATAO, SP, Brasil",-21.6052791,-48.3678239
IRMANDADE SANTA CASA,GVE 12 ARARAQUARA,SAO CARLOS,"R. PAULINO BOTELHO DE ABREU SAMPAIO, 573","BOTRÓPICO, CROTÁLICO, ELAPÍDICO, ESCORPIÔNICO, ARACNÍDICO E LONÔMICO.",(16) 3509-1100,"R. PAULINO BOTELHO DE ABREU SAMPAIO, 573, SAO CARLOS, SP, Brasil",-22.0117851,-47.9003369
UPA - UNIDADE DE PRONTO ATENDIMENTO MUNICIPAL,GVE 12 ARARAQUARA,TAQUARITINGA,"AV. VICENTE JOSÉ PARISE, 2100","BOTRÓPICO, CROTÁLICO, ARACNÍDICO E ESCORPIÔNICO",(16) 3253-8890,"AV. VICENTE JOSÉ PARISE, 2100, TAQUARITINGA, SP, Brasil",-21.4024645,-48.4972625
SANTA CASA DE MISERICÓRDIA,GVE 16 BOTUCATU,TAQUARITUBA,"RUA MARECHAL PEIXOTO, Nº 95","BOTRÓPICO, CROTÁLICO, ARACNÍDICO E ESCORPIÔNICO",(14) 3762-1700,"RUA MARECHAL PEIXOTO, Nº 95, TAQUARITUBA, SP, Brasil",-23.5394215,-49.2453713
UPA DE ASSIS,GVE 13 ASSIS,ASSIS,"RUA OSMAR LUCHINI, 670","BOTRÓPICO, CROTÁLICO, ELAPÍDICO, ESCORPIÔNICO, ARACNÍDICO E LONÔMICO.",(18) 3222-3553 / 3302-6069,"RUA OSMAR LUCHINI, 670, ASSIS, SP, Brasil",-22.6463059,-50.4026929
SANTA CASA DE MISERICÓRDIA DE BARRETOS,GVE 14 BARRETOS,BARRETOS,AV 23 Nº 1208,"BOTRÓPICO, CROTÁLICO, ELAPÍDICO, ESCORPIÔNICO, ARACNÍDICO E LONÔMICO.",(17) 3321-2500,"AV 23 Nº 1208, BARRETOS, SP, Brasil",-20.5557459,-48.567313
PRONTO ATENDIMENTO MUNICIPAL,GVE 14 BARRETOS,COLINA,PRAÇA LAMOUNIER DE ANDRADE S/N,"BOTRÓPICO, CROTÁLICO, ARACNÍDICO E ESCORPIÔNICO.",(17) 3341-4353,"PRAÇA LAMOUNIER DE ANDRADE S/N, COLINA, SP, Brasil",-20.7150956,-48.5461421
HOSPITAL MUNICIPAL JÚLIO R DE PAULA,GVE 14 BARRETOS,COLOMBIA,RUA ANTONIO PRADO Nº 807,"BOTRÓPICO, CROTÁLICO, ARACNÍDICO E ESCORPIÔNICO.",(17) 3335-1116 / 3335-8787,"RUA ANTONIO PRADO Nº 807, COLOMBIA, SP, Brasil",-20.174593,-48.6887978
SANTA CASA DE MISERICÓRDIA DE GUAÍRA,GVE 14 BARRETOS,GUAIRA,RUA 24 Nº 872,"BOTRÓPICO, CROTÁLICO, ARACNÍDICO E ESCORPIÔNICO.",(17) 3332-7000,"RUA 24 Nº 872, GUAIRA, SP, Brasil",-20.3259738,-48.3186141
HOSPITAL SANTA LUZIA DE DUARTINA,GVE 15 BAURU,DUARTINA,"RUA DR. GIL BORGES, Nº 226",ESCORPIÔNICO,(14) 3282-8230,"RUA DR. GIL BORGES, Nº 226, DUARTINA, SP, Brasil",-22.4165428,-49.4154259
SANTA CASA DE MISERICÓRDIA,GVE 15 BAURU,JAU,"RUA RIACHUELO, Nº 1073","BOTRÓPICO, CROTÁLICO, ARACNÍDICO E ESCORPIÔNICO.",(14) 3622-4040,"RUA RIACHUELO, Nº 1073, JAU, SP, Brasil",-22.2913397,-48.5626593
UPA DE LENÇÓIS PAULISTA,GVE 15 BAURU,LENÇÓIS PAULISTA,"RUA SETE DE SETEMBRO, Nº 600",ESCORPIÔNICO,(14) 3269-1300,"RUA SETE DE SETEMBRO, Nº 600, LENÇÓIS PAULISTA, SP, Brasil",-22.5999137,-48.795911
IRM. STA CASA DE MIS. DE LINS,GVE 15 BAURU,LINS,"RUA PEDRO DE TOLEDO, 486","BOTRÓPICO, CROTÁLICO, ESCORPIÔNICO, LAQUÉTICO E ARACNÍDICO",(14) 3533-2500,"RUA PEDRO DE TOLEDO, 486, LINS, SP, Brasil",-21.6721387,-49.75563229999999
SANTA CASA DE PIRAJUÍ,GVE 15 BAURU,PIRAJUI,"AVENIDA RUI BARBOSA LIMA, Nº 746",ESCORPIÔNICO,(14) 3572-1828,"AVENIDA RUI BARBOSA LIMA, Nº 746, PIRAJUI, SP, Brasil",-21.9975822,-49.45844570000001
SANTA CASA DE MISERICÓRDIA DE AVARÉ,GVE 16 BOTUCATU,AVARE,"R. PARAÍBA, Nº 1003 - CENTRO","BOTRÓPICO, CROTÁLICO, ARACNÍDICO E ESCORPIÔNICO.",(14) 3711-9100,"R. PARAÍBA, Nº 1003 - CENTRO, AVARE, SP, Brasil",-23.100954,-48.9286662
HOSPITAL MUNICIPAL DE CONCHAS,GVE 16 BOTUCATU,CONCHAS,"R. ALEXANDRE JOSÉ, 87, CENTRO",ESCORPIÔNICO,(14) 3845-8400,"R. ALEXANDRE JOSÉ, 87, CENTRO, CONCHAS, SP, Brasil",-23.018308,-48.0117116
SANTA CASA DE MISERICÓRDIA,GVE 16 BOTUCATU,FARTURA,"PRAÇA DR JOSÉ SEBASTIÃO DE OLIVEIRA, Nº 44","BOTRÓPICO, CROTÁLICO, ARACNÍDICO E ESCORPIÔNICO.",(14) 3382-1100,"PRAÇA DR JOSÉ SEBASTIÃO DE OLIVEIRA, Nº 44, FARTURA, SP, Brasil",-23.3941863,-49.5157329
SANTA CASA DE LARANJAL PAULISTA,GVE 16 BOTUCATU,LARANJAL PAULISTA,"RUA GOVERNADOR PEDRO DE TOLEDO, 633, CENTRO",ESCORPIÔNICO,(15) 3383-9191,"RUA GOVERNADOR PEDRO DE TOLEDO, 633, CENTRO, LARANJAL PAULISTA, SP, Brasil",-23.0555977,-47.8327359
SOCIEDADE DE BENEFICÊNCIA,GVE 16 BOTUCATU,PIRAJU,"RUA 7 DE SETEMBRO, Nº 818","BOTRÓPICO, CROTÁLICO, ARACNÍDICO E ESCORPIÔNICO.",(14) 3305-9444,"RUA 7 DE SETEMBRO, Nº 818, PIRAJU, SP, Brasil",-23.1970906,-49.3815788
HOSPITAL SÃO CAMILO - ÁGUAS DE LINDÓIA,GVE 17 CAMPINAS,AGUAS DE LINDOIA,"RUA SANTA CATARINA, 158",ESCORPIÔNICO,(19) 3824-1122,"RUA SANTA CATARINA, 158, AGUAS DE LINDOIA, SP, Brasil",-22.4734523,-46.6342122
SANTA CASA DE ATIBAIA,GVE 17 CAMPINAS,ATIBAIA,"PRAÇA DR. MIGUEL VAIRO, 104","BOTRÓPICO, CROTÁLICO, ARACNÍDICO E ESCORPIÔNICO.",(11) 4411-0062,"PRAÇA DR. MIGUEL VAIRO, 104, ATIBAIA, SP, Brasil",-23.1148719,-46.551103
HOSPITAL UNIVERSITÁRIO SÃO FRANCISCO,GVE 17 CAMPINAS,BRAGANÇA PAULISTA,"AV. SÃO FRANCISCO DE ASSIS, 218","BOTRÓPICO, CROTÁLICO, ARACNÍDICO E ESCORPIÔNICO.",(11) 2454-8681,"AV. SÃO FRANCISCO DE ASSIS, 218, BRAGANÇA PAULISTA, SP, Brasil",-22.9764728,-46.535031
HOSPITAL DAS CLÍNICAS DA UNICAMP – CCI,GVE 17 CAMPINAS,CAMPINAS,BARÃO GERALDO - CAMPINAS,"BOTRÓPICO, CROTÁLICO, ELAPÍDICO, ESCORPIÔNICO, ARACNÍDICO E LONÔMICO.",(19) 3521-6700 / 7555,"BARÃO GERALDO - CAMPINAS, CAMPINAS, SP, Brasil",-22.8280735,-47.0792185
HOSP. AUGUSTO DE OLIVEIRA CAMARGO,GVE 17 CAMPINAS,INDAIATUBA,"AV. FRANCISCO DE PAULA LEITE, 399",ESCORPIÔNICO E ARACNÍDICO.,(19) 3801-8200 R. 8347,"AV. FRANCISCO DE PAULA LEITE, 399, INDAIATUBA, SP, Brasil",-23.0943923,-47.21269270000001
SANTA CASA DE MISERICÓRDIA DE ITATIBA,GVE 17 CAMPINAS,ITATIBA,"AV. DA SAUDADE, 43","BOTRÓPICO, CROTÁLICO, ARACNÍDICO E ESCORPIÔNICO.",(11) 4594-8899,"AV. DA SAUDADE, 43, ITATIBA, SP, Brasil",-23.0074081,-46.8329508
HOSPITAL SÃO VICENTE DE PAULA (ADULTOS),GVE 17 CAMPINAS,JUNDIAÍ,"RUA SÃO VICENTE DE PAULA, 223","BOTRÓPICO, CROTÁLICO, ARACNÍDICO E ESCORPIÔNICO.",(11) 4583-8155,"RUA SÃO VICENTE DE PAULA, 223, JUNDIAÍ, SP, Brasil",-23.1837783,-46.8902194
SANTA CASA DE MISERICÓRDIA,GVE 17 CAMPINAS, SOCORRO,"AV. DR. RENATO SILVA, 129","BOTRÓPICO, CROTÁLICO, ELAPÍDICO (JUDICIAL), ESCORPIÔNICO E ARACNÍDICO.",(19) 3855-9555,"AV. DR. RENATO SILVA, 129,  SOCORRO, SP, Brasil",-22.5983918,-46.52955739999999
SANTA CASA DE MISERICÓRDIA - IGARAPAVA,GVE 18 FRANCA, IGARAPAVA,"R. CEL. FRANCISCO MARTINS, 769","BOTRÓPICO, CROTÁLICO, ARACNÍDICO E ESCORPIÔNICO.",(16) 3172-1611,"R. CEL. FRANCISCO MARTINS, 769,  IGARAPAVA, SP, Brasil",-20.0366477,-47.7493128
HOSP. SÃO MARCOS DA SAMA,GVE 18 FRANCA, MORRO AGUDO,"R. SEBASTIÃO ANTONIO MUNIZ, 164","BOTRÓPICO, CROTÁLICO, ARACNÍDICO E ESCORPIÔNICO.",(16) 3851-3000,"R. SEBASTIÃO ANTONIO MUNIZ, 164,  MORRO AGUDO, SP, Brasil",-20.7356962,-48.0554613
SANTA CASA DE MISERICÓRDIA DE PATROCÍNIO PTA.,GVE 18 FRANCA, PATROCINIO PAULISTA,"R. CÔNEGO PEREGRINO, 1181","BOTRÓPICO, CROTÁLICO, ARACNÍDICO E ESCORPIÔNICO.",(16) 3145-1121,"R. CÔNEGO PEREGRINO, 1181,  PATROCINIO PAULISTA, SP, Brasil",-20.6449944,-47.2797827
SANTA CASA DE MISERICÓRDIA - PEDREGULHO,GVE 18 FRANCA, PEDREGULHO,"R. TENENTE SALVIANO, 125","BOTRÓPICO, CROTÁLICO, ARACNÍDICO E ESCORPIÔNICO.",(16) 3711-2149,"R. TENENTE SALVIANO, 125,  PEDREGULHO, SP, Brasil",-20.2585582,-47.4768428
SANTA CASA DE MISERICÓRDIA,GVE 18 FRANCA,SAO JOAQUIM DA BARRA,"R. PIRATININGA, 1221","BOTRÓPICO, CROTÁLICO, ARACNÍDICO E ESCORPIÔNICO.",(16) 3810-4000,"R. PIRATININGA, 1221, SAO JOAQUIM DA BARRA, SP, Brasil",-20.5871558,-47.861758
HOSPITAL DE CLÍNICAS II (CRIANÇAS),GVE 19 MARILIA,MARILIA,"AV. SAMPAIO VIDAL, 42","BOTRÓPICO, CROTÁLICO, ELAPÍDICO, ESCORPIÔNICO, ARACNÍDICO E LONÔMICO.",(14) 3434-2526,"AV. SAMPAIO VIDAL, 42, MARILIA, SP, Brasil",-22.2224573,-49.9471862
SANTA CASA DE MISERICÓRDIA - TUPÃ,GVE 19 MARILIA,TUPA,"R. MANOEL FERREIRA DAMIÃO, 426","BOTRÓPICO, CROTÁLICO, ARACNÍDICO E ESCORPIÔNICO.",(14) 3044-5555,"R. MANOEL FERREIRA DAMIÃO, 426, TUPA, SP, Brasil",-21.9244122,-50.5183702
SANTA CASA DE MISERICÓRDIA,GVE 20 PIRACICABA,LEME,"RUA: PE. JULIÃO, 1213","BOTRÓPICO, CROTÁLICO, ARACNÍDICO E ESCORPIÔNICO.",(19) 3573-6500,"RUA: PE. JULIÃO, 1213, LEME, SP, Brasil",-22.1900775,-47.39211539999999
SANTA CASA DE MISERICÓRDIA,GVE 20 PIRACICABA,LIMEIRA,"AV. ANTONIO OMETTO, 675, VILA CLAUDIA","BOTRÓPICO, CROTÁLICO, ARACNÍDICO E ESCORPIÔNICO.",(19) 3446-6100,"AV. ANTONIO OMETTO, 675, VILA CLAUDIA, LIMEIRA, SP, Brasil",-22.5793843,-47.4001283
SANTA CASA DE MISERICÓRDIA DE PIRACICABA,GVE 20 PIRACICABA,PIRACICABA,"AV. INDEPENDÊNCIA, 953","BOTRÓPICO, CROTÁLICO, ELAPÍDICO, ESCORPIÔNICO, ARACNÍDICO E LONÔMICO.",(19) 3417-5000,"AV. INDEPENDÊNCIA, 953, PIRACICABA, SP, Brasil",-22.7360934,-47.6428781
UPA VILA CRISTINA,GVE 20 PIRACICABA,PIRACICABA,"RUA DONA ANÉSIA, JARAGUÁ",ESCORPIÔNICO,(19) 3434-2296,"RUA DONA ANÉSIA, JARAGUÁ, PIRACICABA, SP, Brasil",-22.7401424,-47.6640009
SANTA CASA DE MISERICÓRDIA,GVE 20 PIRACICABA,PIRASSUNUNGA,"AV. NEWTON PRADO, 1883","BOTRÓPICO, CROTÁLICO, ARACNÍDICO E ESCORPIÔNICO.",(19) 3655-8100,"AV. NEWTON PRADO, 1883, PIRASSUNUNGA, SP, Brasil",-21.9961479,-47.4222349
UNIDADE DE URGÊNCIA E EMERGÊNCIA NOSSA SENHORA DE LOURDES,GVE 20 PIRACICABA,RIO CLARO,"AV. 15, Nº 297","BOTRÓPICO, CROTÁLICO, ARACNÍDICO E ESCORPIÔNICO.",(19) 3533-5484,"AV. 15, Nº 297, RIO CLARO, SP, Brasil",-22.4157499,-47.5565035
UPA DE SÃO PEDRO (ANEXO À SANTA CASA),GVE 20 PIRACICABA,SAO PEDRO,"RUA MALAQUIAS GUERRA, 162","BOTRÓPICO, CROTÁLICO E ESCORPIÔNICO.",(19) 3481-9270,"RUA MALAQUIAS GUERRA, 162, SAO PEDRO, SP, Brasil",-22.545151,-47.9143193
HOSPITAL MUNICIPAL,GVE 21 PRESIDENTE PRUDENTE,IEPE,"RUA JOSÉ SIMÕES FILHO, 81","BOTRÓPICO, CROTÁLICO, ARACNÍDICO E ESCORPIÔNICO.",(18) 3264-1441,"RUA JOSÉ SIMÕES FILHO, 81, IEPE, SP, Brasil",-22.6598967,-51.0791683
SANTA CASA DE MISERICÓRDIA,GVE 21 PRESIDENTE PRUDENTE,MARTINOPOLIS,"RUA JOSÉ HENRIQUE DE MELLO, 236","BOTRÓPICO, CROTÁLICO, ARACNÍDICO E ESCORPIÔNICO.",(18) 3275-1000,"RUA JOSÉ HENRIQUE DE MELLO, 236, MARTINOPOLIS, SP, Brasil",-22.1459865,-51.16984009999999
PRONTO ATENDIMENTO MUNICIPAL,GVE 21 PRESIDENTE PRUDENTE,PIRAPOZINHO,"RUA EUCLIDES DA CUNHA, Nº 191",ESCORPIÔNICO,18 – 32692609,"RUA EUCLIDES DA CUNHA, Nº 191, PIRAPOZINHO, SP, Brasil",-22.2756645,-51.494084
SANTA CASA DE MISERICÓRDIA,GVE 21 PRESIDENTE PRUDENTE,PRESIDENTE PRUDENTE,"RUA VENCESLAU BRAZ, Nº 05","BOTRÓPICO, CROTÁLICO, ELAPÍDICO, ESCORPIÔNICO, ARACNÍDICO E LONÔMICO.",(18) 2101-8000,"RUA VENCESLAU BRAZ, Nº 05, PRESIDENTE PRUDENTE, SP, Brasil",-22.1290923,-51.39224489999999
HOSPITAL E MATERNIDADE,GVE 21 PRESIDENTE PRUDENTE,RANCHARIA,"RUA MÁRIO CÉSAR DE CAMARGO, 1559","BOTRÓPICO, CROTÁLICO, ESCORPIÔNICO E ARACNÍDICO.",(18) 3265-1511,"RUA MÁRIO CÉSAR DE CAMARGO, 1559, RANCHARIA, SP, Brasil",-22.2334451,-50.8964027
HOSPITAL DE CARIDADE ANITA COSTA,GVE 21 PRESIDENTE PRUDENTE,SANTO ANASTACIO,"PRAÇA DR. LUIZ RAMOS E SILVA, Nº 328","BOTRÓPICO, CROTÁLICO, ESCORPIÔNICO E ARACNÍDICO.",(18) 3263-1155,"PRAÇA DR. LUIZ RAMOS E SILVA, Nº 328, SANTO ANASTACIO, SP, Brasil",-21.975526,-51.6519887
SANTA CASA DE MISERICÓRDIA,GVE 22 PRESIDENTE VENCESLAU,DRACENA,"RUA VIRGÍLIO PAGNOZZI, 822","BOTRÓPICO, CROTÁLICO, ESCORPIÔNICO E ARACNÍDICO.",(18) 3821-8466,"RUA VIRGÍLIO PAGNOZZI, 822, DRACENA, SP, Brasil",-21.4780916,-51.537187
SANTA CASA DE MISERICÓRDIA,GVE 22 PRESIDENTE VENCESLAU,JUNQUEIROPOLIS,"RUA PORTO ALEGRE, 1221","BOTRÓPICO, CROTÁLICO, ESCORPIÔNICO E ARACNÍDICO.",(18) 3841-9420,"RUA PORTO ALEGRE, 1221, JUNQUEIROPOLIS, SP, Brasil",-21.5150179,-51.4389184
PRONTO ATENDIMENTO MUNICIPAL,GVE 22 PRESIDENTE VENCESLAU,MIRANTE DO PARANAPANEMA,"AV. ZIL BRASIL, 320","BOTRÓPICO, CROTÁLICO, ESCORPIÔNICO E ARACNÍDICO.",(18) 3991-1292,"AV. ZIL BRASIL, 320, MIRANTE DO PARANAPANEMA, SP, Brasil",-22.2857162,-51.906796
PRONTO ATENDIMENTO MUNICIPAL,GVE 22 PRESIDENTE VENCESLAU,PANORAMA,"RUA MANOEL FERNANDES DA CUNHA, 512","BOTRÓPICO, CROTÁLICO, ESCORPIÔNICO E ARACNÍDICO.",(18) 3871-1583,"RUA MANOEL FERNANDES DA CUNHA, 512, PANORAMA, SP, Brasil",-21.3608332,-51.8589073
HOSPITAL REGIONAL DE PORTO PRIMAVERA,GVE 22 PRESIDENTE VENCESLAU,ROSANA,"RUA DO HOSPITAL, S/N","BOTRÓPICO, CROTÁLICO, ESCORPIÔNICO E ARACNÍDICO.",(18) 3284-9500,"RUA DO HOSPITAL, S/N, ROSANA, SP, Brasil",-22.5303673,-52.9490781
SANTA CASA DE MISERICÓRDIA,GVE 22 PRESIDENTE VENCESLAU,TUPI PAULISTA,"RUA ALMIRANTE BARROSO, 1436","BOTRÓPICO, CROTÁLICO, ESCORPIÔNICO E ARACNÍDICO.",(18) 3851-2420,"RUA ALMIRANTE BARROSO, 1436, TUPI PAULISTA, SP, Brasil",-21.3933904,-51.5744671
PRONTO SOCORRO DRº TAMINATO TION,GVE 23 REGISTRO,ITARIRI,"RUA BENEDITO CALIXTO, 260 - CENTRO","BOTRÓPICO, CROTÁLICO, ARACNÍDICO E ESCORPIÔNICO.",(13) 3418-8000,"RUA BENEDITO CALIXTO, 260 - CENTRO, ITARIRI, SP, Brasil",-24.2921915,-47.175479
UNIDADE DE PRONTO ATENDIMENTO,GVE 23 REGISTRO,REGISTRO,"AVENIDA NELSON BRIHI BADUR, 605 - VILA SÃO NICOLAU",ESCORPIÔNICO,(13) 3821-3155,"AVENIDA NELSON BRIHI BADUR, 605 - VILA SÃO NICOLAU, REGISTRO, SP, Brasil",-24.5029341,-47.85276510000001
PRONTO ATENDIMENTO,GVE 23 REGISTRO,SETE BARRAS,RODOVIA SP 139 KM 21 - CENTRO,"BOTRÓPICO, ARACNÍDICO E ESCORPIÔNICO.",(13) 3872-5510,"RODOVIA SP 139 KM 21 - CENTRO, SETE BARRAS, SP, Brasil",-24.3727992,-47.9335238
HOSPITAL DE MISERICÓRDIA - ALTINÓPOLIS,GVE 24 RIBEIRAO PRETO,ALTINOPOLIS,"RUA CORONEL JOAQUIM ALBERTO, 421, CENTRO","BOTRÓPICO, CROTÁLICO E ESCORPIÔNICO.",(16) 3665-7200 / 3665-9624,"RUA CORONEL JOAQUIM ALBERTO, 421, CENTRO, ALTINOPOLIS, SP, Brasil",-21.0266098,-47.3759212
CS II DR. HOFEZ ZACHARIAS BEHY - CAJURU,GVE 24 RIBEIRAO PRETO,CAJURU,RUA CAPITÃO JOSÉ FERREIRA DINIZ,"BOTRÓPICO, CROTÁLICO E ESCORPIÔNICO.",(16) 3667-9947 / 99208-5450,"RUA CAPITÃO JOSÉ FERREIRA DINIZ, CAJURU, SP, Brasil",-21.2744135,-47.3037601
PRONTO SOCORRO MUNICIPAL DE MONTE ALTO,GVE 24 RIBEIRAO PRETO,MONTE ALTO,"RUA JEREMIAS DE PAULA EDUARDO, 2287, CENTRO",ESCORPIÔNICO,(16) 3242-2100 / 8358,"RUA JEREMIAS DE PAULA EDUARDO, 2287, CENTRO, MONTE ALTO, SP, Brasil",-21.2646483,-48.5022423
SANTA CASA DE SANTA RITA DO PASSA QUATRO,GVE 24 RIBEIRAO PRETO,SANTA RITA DO PASSA QUATRO,"RUA INÁCIO RIBEIRO, 279, CENTRO","BOTRÓPICO, CROTÁLICO E ESCORPIÔNICO.",(19) 3582-9555,"RUA INÁCIO RIBEIRO, 279, CENTRO, SANTA RITA DO PASSA QUATRO, SP, Brasil",-21.7059222,-47.48185489999999
UPA PERUÍBE (PROVISÓRIO),GVE 25 SANTOS,PERUIBE,RUA ALFREDO GOMES 46. CENTRO. PERUÍBE,"BOTRÓPICO, CROTÁLICO, ARACNÍDICO E ESCORPIÔNICO.",(13) 3454-1589,"RUA ALFREDO GOMES 46. CENTRO. PERUÍBE, PERUIBE, SP, Brasil",-24.3149606,-46.9993771
HOSPITAL GUILHERME ÁLVARO - SANTOS,GVE 25 SANTOS,SANTOS,R. OSWALDO CRUZ Nº197,"BOTRÓPICO, CROTÁLICO, ELAPÍDICO, ESCORPIÔNICO, ARACNÍDICO E LONÔMICO.",(13) 3202-1300,"R. OSWALDO CRUZ Nº197, SANTOS, SP, Brasil",-23.9646851,-46.3215779
SANTA CASA DE MISERICÓRDIA,GVE 26 SAO JOAO DA BOA VISTA,CACONDE,"R. PADRE DE ANGELIS, 39","BOTRÓPICO, CROTÁLICO, ELAPÍDICO, ESCORPIÔNICO, ARACNÍDICO E LONÔMICO.",(19) 3662-1711,"R. PADRE DE ANGELIS, 39, CACONDE, SP, Brasil",-21.5329342,-46.6461564
PRONTO ATENDIMENTO DR. CIRO CORSI,GVE 26 SAO JOAO DA BOA VISTA,ESPIRITO SANTO DO PINHAL,"R. TEIXEIRA RIOS, 210","BOTRÓPICO, CROTÁLICO, ELAPÍDICO, ESCORPIÔNICO, ARACNÍDICO E LONÔMICO.",(19) 3651-7373,"R. TEIXEIRA RIOS, 210, ESPIRITO SANTO DO PINHAL, SP, Brasil",-22.1943392,-46.7418302
HOSPITAL MUNICIPAL DE ITAPIRA,GVE 26 SAO JOAO DA BOA VISTA,ITAPIRA,"R. REVERENDO ALFREDO GUIMARÃES, 111","BOTRÓPICO, CROTÁLICO, ELAPÍDICO, ESCORPIÔNICO, ARACNÍDICO E LONÔMICO.",(19) 3913-9393,"R. REVERENDO ALFREDO GUIMARÃES, 111, ITAPIRA, SP, Brasil",-22.4317848,-46.8268506
UNIDADE DE PRONTO ATENDIMENTO,GVE 26 SAO JOAO DA BOA VISTA,MOCOCA,"AV. SAUDADE, 1445 - CENTRO","BOTRÓPICO, CROTÁLICO, ELAPÍDICO, ESCORPIÔNICO E LONÔMICO.",(19) 3656-9200,"AV. SAUDADE, 1445 - CENTRO, MOCOCA, SP, Brasil",-21.4633172,-47.0063361
SANTA CASA DE MISERICÓRDIA,GVE 26 SAO JOAO DA BOA VISTA,MOGI GUACU,"R. CHICO DE PAULA, 608","BOTRÓPICO, CROTÁLICO, ELAPÍDICO, ESCORPIÔNICO, ARACNÍDICO E LONÔMICO.",(19) 3818-5943,"R. CHICO DE PAULA, 608, MOGI GUACU, SP, Brasil",-22.3646036,-46.9434416
SANTA CASA D. CAROLINA MALHEIROS,GVE 26 SAO JOAO DA BOA VISTA,SAO JOAO DA BOA VISTA,"R. CAROLINA MALHEIROS, 92","BOTRÓPICO, CROTÁLICO, ELAPÍDICO, ESCORPIÔNICO, ARACNÍDICO E LONÔMICO.",(19) 3633-2222,"R. CAROLINA MALHEIROS, 92, SAO JOAO DA BOA VISTA, SP, Brasil",-21.978251,-46.7902585
SANTA CASA DE MISERICÓRDIA,GVE 26 SAO JOAO DA BOA VISTA,SAO JOSE DO RIO PARDO,"RUA: CAMPOS SALLES, 1411","BOTRÓPICO, CROTÁLICO, ESCORPIÔNICO, ARACNÍDICO E LONÔMICO.",(19) 3682-7826 / 3608-7484,"RUA: CAMPOS SALLES, 1411, SAO JOSE DO RIO PARDO, SP, Brasil",-21.6037311,-46.89483389999999
CENTRO DE SAÚDE III DR. JOÃO AURICCHO,GVE 27 SAO JOSE DOS CAMPOS,MONTEIRO LOBATO,"RUA ANTÔNIO ALVES MAGALHÃES, 20 – CENTRO","ESCORPIÔNICO, FONÉUTRICO E ARACNÍDICO.",(12) 3979-1124,"RUA ANTÔNIO ALVES MAGALHÃES, 20 – CENTRO, MONTEIRO LOBATO, SP, Brasil",-22.9553394,-45.8389868
UNIDADE DE PRONTO ATENDIMENTO,GVE 27 SAO JOSE DOS CAMPOS,PARAIBUNA,"RUA MAJOR SOARES, S/N","BOTRÓPICO, CROTÁLICO, ESCORPIÔNICO, ARACNÍDICO.",(12) 3974-0003,"RUA MAJOR SOARES, S/N, PARAIBUNA, SP, Brasil",-23.3883491,-45.6604862
HOSPITAL MUNICIPAL DR JOSÉ DE CARVALHO FLORENCE,GVE 27 SAO JOSE DOS CAMPOS,SAO JOSE DOS CAMPOS,"RUA SAIGIRO NAKAMURA, 800 - VILA INDUSTRIAL","BOTRÓPICO, CROTÁLICO, ELAPÍDICO, ARACNÍDICO, ESCORPIÔNICO E LONÔMICO.",(12) 3901-34003,"RUA SAIGIRO NAKAMURA, 800 - VILA INDUSTRIAL, SAO JOSE DOS CAMPOS, SP, Brasil",-23.1799299,-45.85395870000001
UPA SÃO FRANCISCO XAVIER,GVE 27 SAO JOSE DOS CAMPOS,SAO JOSE DOS CAMPOS,RUA QUINZE DE NOVEMBRO S/N,"BOTRÓPICO, CROTÁLICO, ARACNÍDICO E ESCORPIÔNICO.",(12) 3926-1265,"RUA QUINZE DE NOVEMBRO S/N, SAO JOSE DOS CAMPOS, SP, Brasil",-23.1394634,-45.7857516
HOSPITAL DE CLÍNICAS DE SÃO SEBASTIÃO - COSTA SUL (BOIÇUCANGA),GVE 28 CARAGUATATUBA,SAO SEBASTIAO,"AV. WALKIR VERGANI, 900","BOTRÓPICO, CROTÁLICO, ESCORPIÔNICO E ARACNÍDICO.",(12) 3865-2040,"AV. WALKIR VERGANI, 900, SAO SEBASTIAO, SP, Brasil",-23.7837633,-45.6286439
SANTA CASA DE MISERICORDIA,GVE 28 CARAGUATATUBA,UBATUBA,"R CONCEIÇÃO, 135","BOTRÓPICO, CROTÁLICO, ARACNÍDICO E ESCORPIÔNICO.",(12) 3834-3230,"R CONCEIÇÃO, 135, UBATUBA, SP, Brasil",-23.4347401,-45.0709339
HOSP. PADRE ALBINO,GVE 29 SAO JOSE DO RIO PRETO,CATANDUVA,RUA BELÉM 519 CENTRO,"BOTRÓPICO, CROTÁLICO, ARACNÍDICO E ESCORPIÔNICO.",(17) 3311-3023 E (17) 3311-3000,"RUA BELÉM 519 CENTRO, CATANDUVA, SP, Brasil",-21.1411509,-48.975889
HOSPITAL DE BASE,GVE 29 SAO JOSE DO RIO PRETO,SAO JOSE DO RIO PRETO,AV. BRIGADEIRO FARIA LIMA 5544,"BOTRÓPICO, CROTÁLICO, ELAPÍDICO, LAQUÉTICO, ESCORPIÔNICO, ARACNÍDICO E LONÔMICO.",(17) 3201-5000,"AV. BRIGADEIRO FARIA LIMA 5544, SAO JOSE DO RIO PRETO, SP, Brasil",-20.8284143,-49.3967551
SANTA CASA DE MISERICÓRDIA,GVE 29 SAO JOSE DO RIO PRETO,VOTUPORANGA,RUA MINAS GERAIS 3051,"BOTRÓPICO, CROTÁLICO, ESCORPIÔNICO E ARACNÍDICO.",(17) 3405-9133,"RUA MINAS GERAIS 3051, VOTUPORANGA, SP, Brasil",-20.4254777,-49.9779841
SANTA CASA DE MISERICÓRDIA - FERNANDÓPOLIS,GVE 30 JALES,FERNANDOPOLIS,AV. AFONSO CÁFARO 2630 JD. SANTISTA,"BOTRÓPICO, CROTÁLICO, ESCORPIÔNICO E ARACNÍDICO.",(17) 3465-6122,"AV. AFONSO CÁFARO 2630 JD. SANTISTA, FERNANDOPOLIS, SP, Brasil",-20.2950562,-50.24710229999999
UNIDADE DE PRONTO ATENDIMENTO (UPA) - JALES,GVE 30 JALES,JALES,RUA SEBASTIÃO MARTINS N 2373,"BOTRÓPICO, CROTÁLICO, ELAPÍDICO, ARACNÍDICO E ESCORPIÔNICO.",(17) 3632-8747,"RUA SEBASTIÃO MARTINS N 2373, JALES, SP, Brasil",-20.293099,-50.5419375
HOSPITAL DE CLÍNICAS SUL,GVE 27 SÃO JOSÉ DOS CAMPOS,SÃO JOSÉ DOS CAMPOS,"PRAÇA NATAL, 55 PARQUE INDUSTRIAL",ESCORPIÔNICO,(12) 3935-8100,"PRAÇA NATAL, 55 PARQUE INDUSTRIAL, SÃO JOSÉ DOS CAMPOS, SP, Brasil",-23.2381379,-45.9095523
HOSPITAL REGIONAL DE ITAPETININGA,GVE 31 SOROCABA,ITAPETININGA,"R. PADRE ALBUQUERQUE , 245 - CENTRO","BOTRÓPICO, CROTÁLICO, ESCORPIÔNICO E ARACNÍDICO.",(15) 3275-7800,"R. PADRE ALBUQUERQUE , 245 - CENTRO, ITAPETININGA, SP, Brasil",-23.5848472,-48.0451391
HOSPITAL SANTA CASA - PIEDADE,GVE 31 SOROCABA,PIEDADE,"RUA QUINTINO BOCAIUVA, Nº 154, CENTRO","BOTRÓPICO, CROTÁLICO E ESCORPIÔNICO.",(15) 3244-8200,"RUA QUINTINO BOCAIUVA, Nº 154, CENTRO, PIEDADE, SP, Brasil",-23.5931299,-48.0555222
HOSPITAL DE SÃO MIGUEL ARCANJO,GVE 31 SOROCABA,SAO MIGUEL ARCANJO,"RUA TADASHI TAKENAKA, 100","BOTRÓPICO, CROTÁLICO E ESCORPIÔNICO.",(15) 3279-8300,"RUA TADASHI TAKENAKA, 100, SAO MIGUEL ARCANJO, SP, Brasil",-23.873513,-47.99966999999999
PRONTO SOCORRO - CONJUNTO HOSPITALAR DE SOROCABA,GVE 31 SOROCABA,SOROCABA,"RUA CLÁUDIO MANOEL DA COSTA, S/N","BOTRÓPICO, CROTÁLICO, ELAPÍDICO, LAQUÉTICO, ESCORPIÔNICO, ARACNÍDICO E LONÔMICO.",(15) 3322-9125 / 3332-9138 / 3332-9100,"RUA CLÁUDIO MANOEL DA COSTA, S/N, SOROCABA, SP, Brasil",-23.5090495,-47.457913
UPA DE TATUÍ,GVE 31 SOROCABA,TATUI,"RUA QUIM QUEVEDO, 56","BOTRÓPICO, CROTÁLICO, ESCORPIÔNICO.",(15) 3305-8800,"RUA QUIM QUEVEDO, 56, TATUI, SP, Brasil",-23.3417464,-47.8420543
HOSPITAL MUNICIPAL,GVE 32 ITAPEVA,ITABERA,"R. VINTE E TRÊS DE MAIO, 385 - CENTRO","BOTRÓPICO, CROTÁLICO, ESCORPIÔNICO, ARACNÍDICO.",(15) 3562-1336 E (15) 99766-0948,"R. VINTE E TRÊS DE MAIO, 385 - CENTRO, ITABERA, SP, Brasil",-23.8644515,-49.1376456
SANTA CASA DE MISERICÓRDIA DE ITAPEVA,GVE 32 ITAPEVA,ITAPEVA,"RUA SANTOS DUMONT, Nº 433 - CENTRO","BOTRÓPICO, CROTÁLICO, ELAPÍDICO, ESCORPIÔNICO, ARACNÍDICO E LONÔMICO.",(15) 3521-9500 E (15) 99763-8307,"RUA SANTOS DUMONT, Nº 433 - CENTRO, ITAPEVA, SP, Brasil",-23.988286797988994, -48.87580785396594
UNIDADE BÁSICA DE SAÚDE DA FAMÍLIA,GVE 32 ITAPEVA,ITAPIRAPUA PAULISTA,RUA JANUÁRIO DE ALMEIDA 51,ESCORPIÔNICO E ARACNÍDICO.,(15) 3548-1310,"RUA JANUÁRIO DE ALMEIDA 51, ITAPIRAPUA PAULISTA, SP, Brasil",-24.5744915,-49.16873529999999
SANTA CASA DE MISERICÓRDIA - ITARARÉ,GVE 32 ITAPEVA,ITARARE,"RUA SÃO PEDRO, Nº 30 - CENTRO","BOTRÓPICO, CROTÁLICO, ESCORPIÔNICO E ARACNÍDICO.",(15) 3532-3783 E (15) 99713-4686,"RUA SÃO PEDRO, Nº 30 - CENTRO, ITARARE, SP, Brasil",-24.1162726,-49.34562890000001
UPA III,GVE 33 TAUBATE,GUARATINGUETA,"R. RANGEL PESTANA, 195 – CENTRO","BOTRÓPICO, CROTÁLICO, ESCORPIÔNICO E ARACNÍDICO.",(12) 2131-1900 - RAMAL 2030,"R. RANGEL PESTANA, 195 – CENTRO, GUARATINGUETA, SP, Brasil",-22.8212226,-45.1912417
UNIDADE MISTA DE SAÚDE DR. ACÁCIO,GVE 33 TAUBATE,SAO JOSE DO BARREIRO,"RUA JOSÉ BENTO TEIXEIRA, S/N° - CENTRO","BOTRÓPICO, CROTÁLICO, ESCORPIÔNICO E ARACNÍDICO.",(12) 3117-1339,"RUA JOSÉ BENTO TEIXEIRA, S/N° - CENTRO, SAO JOSE DO BARREIRO, SP, Brasil",-22.6482086,-44.57576
HOSPITAL DR. OSÍRIS FLORINDO COELHO,GVE 8 MOGI DAS CRUZES,FERRAZ DE VASCONCELOS,"R. PRINCESA ISABEL, 270 - VILA CORREA",ESCORPIÔNICO,(11) 4675-3444,"R. PRINCESA ISABEL, 270 - VILA CORREA, FERRAZ DE VASCONCELOS, SP, Brasil",-23.5383045,-46.3585329
HOSPITAL MUNICIPAL DE GUARULHOS,GVE 8 MOGI DAS CRUZES,GUARULHOS,"AV. TIRADENTES, 3392 - BOM CLIMA","BOTRÓPICO, CROTÁLICO, ARACNÍDICO, ESCORPIÔNICO E LONÔMICO.",(11) 2475-7449,"AV. TIRADENTES, 3392 - BOM CLIMA, GUARULHOS, SP, Brasil",-23.4528993,-46.5162775
HOSPITAL LUZIA PINHO DE MELO,GVE 8 MOGI DAS CRUZES,MOGI DAS CRUZES,RUA MANOEL DE OLIVEIRA S/N,"BOTRÓPICO, CROTÁLICO, ELAPÍDICO, ARACNÍDICO, ESCORPIÔNICO E LONÔMICO.",(11) 3583-2800,"RUA MANOEL DE OLIVEIRA S/N, MOGI DAS CRUZES, SP, Brasil",-23.5092234,-46.1924326
HOSPITAL ESTADUAL “PROFº CARLOS DA SILVA LACAZ” - CRIANÇAS,GVE 9 FRANCO DA ROCHA,FRANCISCO MORATO,"RODOVIA MANOEL SILVÉRIO PINTO, 125 – BELÉM ESTAÇÃO - FRANCISCO MORATO","BOTRÓPICO, CROTÁLICO, ARACNÍDICO E ESCORPIÔNICO.",(11) 4489-9444,"RODOVIA MANOEL SILVÉRIO PINTO, 125 – BELÉM ESTAÇÃO - FRANCISCO MORATO, FRANCISCO MORATO, SP, Brasil",-23.2837016,-46.74756590000001
HOSPITAL ESTADUAL DR.ALBANO DA FRANCA ROCHA SOBRINHO - ADULTO,GVE 9 FRANCO DA ROCHA,FRANCO DA ROCHA,AV.COQUEIROS S/N,"BOTRÓPICO, CROTÁLICO, ELAPÍDICO, ESCORPIÔNICO, ARACNÍDICO E LONÔMICO.",(11) 3336-8200,"AV.COQUEIROS S/N, FRANCO DA ROCHA, SP, Brasil",-23.3342513,-46.7280491
HOSPITAL E MATERNIDADE DE MAIRIPORÃ,GVE 9 FRANCO DA ROCHA,MAIRIPORÃ,"RUA IPIRANGA Nº 280, CENTRO",ESCORPIÔNICO,(11) 4419-4422,"RUA IPIRANGA Nº 280, CENTRO, MAIRIPORÃ, SP, Brasil",-23.3208724,-46.5901124
HOSPITAL MUNICIPAL DE PARELHEIROS,GVE 1 CAPITAL,SAO PAULO,"RUA EUZÉBIO COGHI, 841, JARDIM ROSCHEL, SÃO PAULO – SP, 04883-290","BOTRÓPICO, CROTÁLICO, ELAPÍDICO, ESCORPIÔNICO E ARACNÍDICO",(11) 4673-9660,"RUA EUZÉBIO COGHI, 841, JARDIM ROSCHEL, SÃO PAULO – SP, 04883-290, SAO PAULO, SP, Brasil",-23.8233217,-46.726476
IRMANDADE DA SANTA CASA DE MISERICÓRDIA DE MONTE APRAZÍVEL,GVE 29 SAO JOSE DO RIO PRETO,MONTE APRAZÍVEL,"RUA SÃO JOÃO, 729, CENTRO, 15150-000",ESCORPIÔNICO,(17) 3275-9510,"RUA SÃO JOÃO, 729, CENTRO, 15150-000, MONTE APRAZÍVEL, SP, Brasil",-21.2651529,-48.4926976
UNIDADE MISTA DE SAÚDE, GVE 10 OSASCO, EMBU-GUACU," ""RUA CELESTINO APA"," Nº 50"""," ""BOTRÓPICO"," ""RUA CELESTINO APA,  EMBU-GUACU, SP, Brasil",-23.8378847,-46.8115661
HOSPITAL SÃO JOÃO, GVE 23 REGISTRO, REGISTRO," ""RUA KIHEJI NASUNO"," 165 - CENTRO"""," ""BOTRÓPICO E ARACNÍDICO"""," ""RUA KIHEJI NASUNO,  REGISTRO, SP, Brasil",-24.4952364,-47.845595
